ID,ADDRESS1,INSTITUTION,ADDRESS2,CITY,PROVINCE,ZIP,COUNTRY,LATITUDE,LONGITUDE
650000,KARTE CHAR RD STREET 2,INTERNATIONAL SCHOOL KABUL,PO BOX 5084,KABUL,,,AFGHANISTAN,34.5442395,69.1485731
704000,FSHATI MULLET,TIRANA INTERNATIONAL SCHOOL,KOMUNA PETRELE,TIRANE,,,ALBANIA,41.2721994,19.8660587
704002,RRUGA E REZERVAVE LUNDER,WORLD ACADEMY OF TIRANA,,TIRANA,,,ALBANIA,41.279778,19.862739
704079,LAGJA NR 1 RRUGA ANASTAS,ALBANIAN COLLEGE DURRES,DURRSAKU,DURRES,,2001,ALBANIA,41.310638,19.4449021
704003,"RRUGA KAVAJES, 21 DHJETORI    ",MEHMET AKIF COLLEGE,,TIRANE,,,ALBANIA,41.3266545,19.8037172
704073,RR GEORGE W BUSH NR 1,INKUS,,TIRANA,,,ALBANIA,41.3271129,19.823631
704001,RR MINE PEZA,HARRY FULTZ INSTITUTE,,TIRANA,,1001,ALBANIA,41.3351263,19.8093402
704072,AEP BOX 89 KP 119,GDQ INTRNTL CHRISTIAN SCHOOL,,TIRANA,,,ALBANIA,41.3419777,19.8009252
602001,ROUTE DE L HOPITAL LYCEE,TAREK BENZIAD SECONDARY SCHOOL,,TAREK BENZIAD,,,ALGERIA,35.9880082,2.1401751
600001,RUA DA COMITE DE ACCAO DO MPLA,COMPLEXO ESCOLAR PRIVADO INTL,KIFICA,LUANDA,,,ANGOLA,-8.9674251,13.1771243
600000,VIA S6 BAIRRO DE TALATONA,LUANDA INTERNATIONAL SCHOOL,MUNICIPIO DE BELAS,LUANDA,,,ANGOLA,-8.915069,13.1896328
890740,PO BOX 60,ALBENA LAKE HODGE CMPRHNSV SCH,,THE VALLEY,,AI 2640,ANGUILLA,18.2156295,-63.0503225
890069,PO BOX WI884,ISLAND ACADEMY,,ST JOHNS,,,ANTIGUA AND BARBUDA,17.0775819,-61.8147817
890600,ANTIGUA GRAMMAR SCHOOL,ANTIGUA GRAMMAR SCHOOL,,ST JOHNS,,,ANTIGUA AND BARBUDA,17.1226804,-61.8354365
900460,YANQUETRUZ Y PUELCHES,NORTHERN HILLS SCHOOL,BOSQUE PERALTA RAMOS,MAR DEL PLATA,,7600,ARGENTINA,-38.0869691,-57.5757228
950020,GASCON 544,HOLY TRINITY COLLEGE,MARDEL PLATA BUENOS AIRES,BUENOS AIRES,,7600,ARGENTINA,-38.0168075,-57.5320807
900450,GUIDO 800,SAINT GEORGES COLLEGE,1878 QUILMES,BUENOS AIRES,,,ARGENTINA,-34.7251873,-58.2433595
900230,AMENABAR 1840,ISLANDS INTERNATIONAL SCHOOL,,BUENOS AIRES,,1428,ARGENTINA,-34.5655872,-58.4565223
900300,ROMA 1210,NORTHLANDS SCHOOL,OLIVOS PROV DE BUENOS AIRES,BUENOS AIRES,,1636,ARGENTINA,-34.5055884,-58.4908894
900351,R S PENA 601,SAINT ANDREWS SCOTS SCHOOL,,OLIVOS B A,,1636,ARGENTINA,-34.5052658,-58.4832787
900310,C.C.  NO 2,ST GEORGES COLLEGE NORTH,,LOS POLVORINES,,B1613,ARGENTINA,-34.496674,-58.6871538
900150,ANDRES FERREYRA 4073,ASOCIACION ESCUELAS LINCOLN,B1637 AOS LALUCILA,BUENOS AIRES,,,ARGENTINA,-34.4917593,-58.4821454
900500,AVE LIBERTADOR 2170,BUENOS AIRES INTRNTL CHRISTIAN,BUENOS AIRES,SAN FERNANDO,,1646,ARGENTINA,-34.4461365,-58.5467766
900311,AVENIDA VALPARAISO 4140,COLEGIO SAN PATRICO BILINGUE,B JARDIN HIPODROMO,CORDOBA,,,ARGENTINA,-31.4610873,-64.1873587
660001,23/2 BAGRATUNIATS ST,QUANTUM COLLEGE,23/2 GAREGIN NZHDEH SQ,YEREVAN,,46,ARMENIA,40.1503257,44.4862806
660555,PO BOX 82,INTERNATIONAL SCH OF YEREVAN,VAHAKNI COMMUNITY SECT 12,YEREVAN,,88,ARMENIA,40.2234239,44.4476529
660003,11/11 TBILISI HIGHWAY,AYB SCHOOL,,YEREVAN,,52,ARMENIA,40.2240798,44.5285847
660002,7 GETAPNYA ST,DILIJAN INTRNTNL SCHL ARMENIA,,DILIJAN,,3903,ARMENIA,40.7390958,44.8321581
874040,DR SCHAEPMANSTRAAT 18,IBERO AMERICAN HIGH SCHOOL,,SAN NICOLAS,,,ARUBA,12.4363262,-69.8984449
874051,WAYACA RESIDENCE 238 A,INTERNATIONAL SCHOOL OF ARUBA,,ORANJESTAD,,,ARUBA,12.5061141,-70.0007765
874400,VONDELLAAN 14,COLEGIO ARUBANO,,ORANJESTAD,,,ARUBA,12.5131386,-70.0262394
700628,PO BOX 241,GUILFORD YOUNG COLLEGE,TASMANIA,GLENORCHY,TAS,TAS 7018,AUSTRALIA,-42.8346945,147.270411
700734,POST OFFICE BOX 257,SOMERSET BAPTIST CHRISTIAN SCH,,SOMERSET,TAS,TAS 7322,AUSTRALIA,-41.0443541,145.8103023
700325,DAVEY HOUSE 150 NOBLE STREET,GEELONG COLLEGE,,NEWTOWN,VIC,VIC 3220,AUSTRALIA,-38.152196,144.3391907
700761,50 BIDDLECOMBE AVE,GEELONG GRAMMAR SCHOOL,,CORIO,VIC,VIC 3214,AUSTRALIA,-38.0701497,144.3988522
700095,855 SPRINGVALE ROAD,HAILEYBURY,,KEYSBOROUGH,VIC,VIC 3173,AUSTRALIA,-37.9952992,145.1441531
700036,11 MENTONE PARADE,MENTONE GIRLS GRAMMAR SCHOOL,,MENTONE,VIC,VIC 3194,AUSTRALIA,-37.9895116,145.0646177
700768,63 VENICE ST,MENTONE GRAMMAR SCHOOL,MELBOURNE  VICTORIA 3194,MENTONE,,,AUSTRALIA,-37.987915,145.067383
700169,90 OUTER CRESCENT,BRIGHTON GRAMMAR SCHOOL,,BRIGHTON,VIC,VIC 3186,AUSTRALIA,-37.9100595,144.9933487
700563,51 OUTER CRESCENT,FIRBANK GRAMMAR SCHOOL,,BRIGHTON,VIC,VIC 3186,AUSTRALIA,-37.9064344,144.9970066
700012,217 GLEN EIRA ROAD EAST,CAULFIELD GRAMMAR SCHOOL,,ST KILDA,VIC,VIC 3183,AUSTRALIA,-37.8764432,145.0035616
700769,172 BURKE RD,SACRE COEUR,GLEN IRIS 3146,VICTORIA,,,AUSTRALIA,-37.8615658,145.0528186
700425,RANFURLIE CRESCENT,KOROWA ANGLICAN GIRLS SCHOOL,GLEN IRIS,MELBOURNE,VIC,VIC 3146,AUSTRALIA,-37.8609969,145.0540044
700000,38 HUNTINGTOWER RD,LAURISTON GIRLS SCHOOL,ARMADALE,VICTORIA,VIC,VIC 3143,AUSTRALIA,-37.8521837,145.0249867
700398,577 ST KILDA ROAD,WESLEY COLLEGE MELBOURNE,,MELBOURNE,VIC,VIC 3004,AUSTRALIA,-37.8490504,144.9822987
700111,141 BURWOOD HIGHWAY,PRESBYTERIAN LADIES COL MELBRN,BURWOOD   VICTORIA,BURWOOD,VIC,VIC 3125,AUSTRALIA,-37.8489456,145.1071253
700011,350-370 KINGS WAY,MAC ROBERTSON GIRLS HIGH SCHL,VICTORIA,MELBOURNE,VIC,VIC 3004,AUSTRALIA,-37.8368178,144.9718377
700765,31 MOONGA ROAD,ST KEVINS COLLEGE,,TOORAK,VIC,VIC 3142,AUSTRALIA,-37.8360022,145.0250305
700168,FORREST HILL,MELBOURNE HIGH SCHOOL,SOUTH YARRA,VICTORIA 3141,,,AUSTRALIA,-37.8353907,144.9957014
700320,1 MORRISON ST,SCOTCH COLLEGE - MELBOURNE,,HAWTHORN,VIC,VIC 3122,AUSTRALIA,-37.8342314,145.0291624
700399,63 DOMAIN RD,MELBOURNE GRAMMAR SCHOOL,MELBOURNE,VICTORIA 3004,,,AUSTRALIA,-37.8331618,144.9741253
700560,86 ANDERSON ST,MELBOURNE GIRLS GRAMMAR,,SOUTH YARRA,VIC,VIC 3141,AUSTRALIA,-37.8309032,144.9850293
700394,43 ELIZABETH STREET,STOTTS COLLEGE,,MELBOURNE,VIC,VIC 3000,AUSTRALIA,-37.8170424,144.9642466
700130,55 MONT ALBERT RD,CAMBERWELL GRAMMAR SCHOOL,,CANTERBURY,VIC,VIC 3126,AUSTRALIA,-37.8163683,145.0665671
700350,349 BARKERS RD,CAREY BAPTIST GRAMMAR SCHOOL,,KEW,VIC,VIC 3101,AUSTRALIA,-37.8141033,145.0481758
700094,207 BARKERS ROAD,METHODIST LADIES COLLEGE,,KEW,VIC,VIC 3101,AUSTRALIA,-37.8139569,145.0383994
700354,135 BARKERS RD,XAVIER COLLEGE,,KEW,VIC,VIC 3121,AUSTRALIA,-37.8124081,145.0316451
700643,ST MARYS CAMPUS,SOPHIA MUNDI STEINER SCHOOL,1 ST HELIERS STREET,ABBOTSFORD,VIC,VIC 3067,AUSTRALIA,-37.8031421,145.0048157
700142,PO BOX 371,NORWOOD SECONDARY COLLEGE,RINGWOOD 3134,VICTORIA,,,AUSTRALIA,-37.7991053,145.2383335
700622,1393 BURKE RD EAST,KEW HIGH SCHOOL,,EAST KEW,VIC,VIC 3102,AUSTRALIA,-37.795756,145.063284
700015,41 THE RIDGEWAY IVANHOE,IVANHOE GRAMMAR SCHOOL,,MELBOURNE,VIC,VIC 3079,AUSTRALIA,-37.7744232,145.0447572
700562,40 WHITE ST,KILMORE INTERNATIONAL SCHOOL,KILMORE,VICTORIA,VIC,VIC 3764,AUSTRALIA,-37.3007763,144.9532001
700140,89 MAIN ROAD,OLIVET CHRISTIAN COLLEGE,,CAMPBELLS CREEK,VIC,VIC 3450,AUSTRALIA,-37.08847,144.204927
700490,PO BOX 757,GOULBURN VALLEY GRAMMAR SCHOOL,,SHEPPARTON,VIC,VIC 3630,AUSTRALIA,-36.3267932,145.4141265
700188,64 ADELAIDE RD,ENCOUNTER LUTHERAN COLLEGE,,VICTOR HARBOR,S A,S A 5211,AUSTRALIA,-35.5278448,138.6365121
700355,JERRABOMBERRA AVE,NARRABUNDAH COLLEGE,,KINGSTON,ACT,ACT 2604,AUSTRALIA,-35.3371351,149.1475934
700818,MONARO CRESCENT,CANBERRA GRAMMAR SCHOOL,,REDHILL,ACT,ACT 2603,AUSTRALIA,-35.3310422,149.1256627
700018,1 COLLEGE ST,RADFORD COLLEGE,,BRUCE,ACT,ACT 2617,AUSTRALIA,-35.2442801,149.0884077
700105,2 EMU BANK,UC SENIOR SEC LAKE GINNINDERRA,,BELCONNEN,ACT,ACT 2617,AUSTRALIA,-35.2386423,149.073685
700044,PO BOX 48 MORPHAT VALE,WOODCROFT COLLEGE,,ADELAIDE,,,AUSTRALIA,-35.113379,138.5436085
700043,MARION CAMPUS,SUNRISE CHRISTIAN SCHOOL,286 STURT RD,ADELAIDE,S A,S A 5043,AUSTRALIA,-35.0168294,138.557052
700401,ALISON AVENUE,WESTMINSTER SCHOOL,,MARION,S A,S A 5043,AUSTRALIA,-35.002693,138.552585
700204,CARRUTH RD,SCOTCH COLLEGE,,TORRENS PARK,,,AUSTRALIA,-34.9822645,138.6167122
700002,LOCKED BAG 5,AUSTRALIAN CHRSTN CO-SOUTHLAND,,ALBANY,W A,W A 6330,AUSTRALIA,-34.9754734,117.8780275
700096,3436 BRAIDWOOD RD LAKE BATHURS,HOLY CROSS MINOR SEMINARY,PO BOX 417,GOULBURN,NSW,NSW 2580,AUSTRALIA,-34.9612326,149.6664538
700101,89 GREENHILL RD,ANNESLEY COLLEGE,,WAYVILLE,,,AUSTRALIA,-34.9423931,138.5972779
700331,18 HOLDEN STREET,PEMBROKE SCHOOL,,KENSINGTON PARK,S A,S A 5068,AUSTRALIA,-34.9215069,138.6501817
700644,HACKNEY RD,SAINT PETERS COLLEGE ADELAIDE,SAINT PETERS,ADELAIDE,S A,S A 5069,AUSTRALIA,-34.9137112,138.6164387
700623,PO BOX 131,TRINITY COLLEGE GAWLER,,GAWLER,S A,S A 5118,AUSTRALIA,-34.6328126,138.7344662
700004,120 CHURCH ST,ALBION PARK HIGH SCHOOL,,ALBION PARK,NSW,NSW 2527,AUSTRALIA,-34.576045,150.772895
700145,POST OFFICE BOX 68B,SHERWOOD HILLS CHRISTIAN SCH,,BRADBURY,NSW,NSW 2560,AUSTRALIA,-34.083619,150.814149
700328,PO BOX 332,SOUTHERN CROSS BAPT CHURCH SCH,,ENGADINE,NSW,NSW 2233,AUSTRALIA,-34.0603281,151.0061111
700521,THUNDERBOLT DR,ROBERT TOWNSON HIGH SCHOOL,,RABY NSW,,,AUSTRALIA,-34.0158895,150.8174327
700660,758 ANZAC PARADE,LYCEE CONDORCET INT FRENCH SCH,,MAROVBRA,NSW,NSW 2035,AUSTRALIA,-33.935331,151.2386828
700013,1 QUEENS PARK ROAD,MORIAH COLLEGE,,QUEENS PARK,NSW,NSW 2076,AUSTRALIA,-33.8987797,151.2441717
700409,200 STANMORE RD,NEWINGTON COLLEGE,NEW SOUTH WALES,STANMORE,NSW,NSW 2048,AUSTRALIA,-33.8980016,151.1631472
700055,4-8 KELLY ST ULTIMO,INTERNATIONAL GRAMMAR SCHOOL,,SYDNEY,NSW,NSW 2138,AUSTRALIA,-33.8814864,151.1954142
700249,451 PITT STREET STE 702,SYDNEY JACARANDA COLLEGE,,SYDNEY,NSW,NSW 2000,AUSTRALIA,-33.8796248,151.2067721
700240,188 NEW SOUTH HEAD RD,ASCHAM SCHOOL,,EDGECLIFF,NSW,NSW 2027,AUSTRALIA,-33.8771454,151.2362006
700601,40 HECTOR STREET,BOB HUGHES CHRISTIAN SCHOOL,,CHESTER HILL,NSW,NSW 2162,AUSTRALIA,-33.876562,151.0093975
700669,215 FORBES STREET,SCEGGS DARLINGHURST,,DARLINGHURST,NSW,NSW 2010,AUSTRALIA,-33.8764277,151.2187158
700100,COLLEGE STREET,SYDNEY GRAMMAR SCHOOL,,DARLINGHURST,NSW,NSW 2010,AUSTRALIA,-33.8753312,151.2133221
700675,VICTORIA RD,SCOTS COLLEGE,,BELLEVUE HILL,NSW,NSW 2023,AUSTRALIA,-33.8749668,151.2530665
700630,10-12 REDMYRE RD,MERIDEN SCHOOL,,STRATHFIELD,NSW,NSW 2135,AUSTRALIA,-33.8743211,151.0899247
700600,5 VICTORIA ROAD,CRANBROOK SCHOOL,,BELLEVUE HILL,NSW,NSW 2023,AUSTRALIA,-33.872345,151.251112
700405,LOCKED BAG 2700,SAINT VINCENTS COLLEGE,,POTTS POINT,NSW,NSW 1335,AUSTRALIA,-33.869612,151.223758
700525,794 NEW SOUTH HEAD ROAD,KAMBALA,ROSE BAY,SYDNEY,NSW,NSW 2029,AUSTRALIA,-33.864859,151.271648
700648,NEW SOUTH HEAD ROAD,KINCOPPAL ROSE BAY SCH SACRED,ROSE BAY,SYDNEY,NSW,NSW 2029,AUSTRALIA,-33.8633126,151.271052
700418,47 UPPER PITT ST,SAINT ALOYSIUS COLLEGE,,MILSONS POINT,NSW,NSW 2061,AUSTRALIA,-33.8487081,151.2141146
700764,85 CARABELLA ST KIRRIBILLI,LORETO KIRRIBILLI,,SYDNEY,NSW,NSW 2099,AUSTRALIA,-33.8472595,151.2164369
700003,176 WALKER ST,WENONA SCHOOL,,NORTH SYDNEY,NSW,NSW 2060,AUSTRALIA,-33.833717,151.209284
700170,MARK STREET,SAINT JOSEPHS COLLEGE-HUNTERS,,HUNTERS HILL,NSW,NSW 2110,AUSTRALIA,-33.8311869,151.138813
700220,272 MILITARY RD,REDLANDS,,CREMORNE,NSW,NSW 2090,AUSTRALIA,-33.830448,151.225553
700665,TAMBOURINE BAY RD,SAINT IGNATIUS COLLEGE,LANE COVE,RIVERVIEW,NSW,NSW 2066,AUSTRALIA,-33.8279799,151.1560607
700629,LOCKED BAG 1,QUEENWOOD SCHOOL FOR GIRLS,,MOSMAN,NSW,NSW 2088,AUSTRALIA,-33.8238119,151.2486805
700641,PO BOX 1,KINGS SCHOOL,,PARRAMATTA,NSW,NSW 2124,AUSTRALIA,-33.789166,151.0198467
700008,419 A WINDSOR ROAD,BAULKHAM HILLS HIGH SCHOOL,,BAULKHAM HILLS,NSW,NSW 2153,AUSTRALIA,-33.7519921,150.9902021
700241,AVON RD,PYMBLE LADIES COLLEGE,PYMBLE,NEW SOUTH WALES,NSW,NSW 2073,AUSTRALIA,-33.7466553,151.1360061
700420,PENNANT HILLS ROAD,LORETO NORMANHURST,,NORMANHURST,,,AUSTRALIA,-33.7260445,151.0987257
700352,LOCKED BAG 1666,ABBOTSLEIGH,,WAHROONGA,NSW,NSW 2076,AUSTRALIA,-33.7204018,151.1151981
700580,91 PACIFIC HIGHWAY,BARKER COLLEGE,,SYDNEY,NSW,NSW 2077,AUSTRALIA,-33.709065,151.0995078
700009,182-222 LAKE RD,MACQUARIE COLLEGE,,WALLSEND,NSW,NSW 2287,AUSTRALIA,-32.9223711,151.6515019
700340,JANET ST,CALLAGHAN COLLEGE JESMOND SR,,JESMOND,NSW,NSW 2299,AUSTRALIA,-32.901188,151.6958154
700814,PO BOX 165,ALL SAINTS COLLEGE,,WILLETTON,W A,W A 6955,AUSTRALIA,-32.0500773,115.8648314
700663,94 KENWICK RD,REHOBOTH CHRISTIAN COLLEGE,,KENWICK,W A,W A 6107,AUSTRALIA,-32.032699,115.978863
700661,6 MORRISON ST,PENRHOS COLLEGE,,COMO,W A,W A 6152,AUSTRALIA,-31.9973376,115.871109
700429,14 MCNEIL STREET,PRESBYTERIAN LADIES COLLEGE WA,,PEPPERMINT GROVE,W A,W A 6011,AUSTRALIA,-31.9947395,115.7677094
700014,QUEENSLEA DRIVE,CHRIST CHURCH GRAMMAR SCHOOL,,CLAREMONT,W A,W A 6010,AUSTRALIA,-31.9854761,115.7780257
700108,40 COODE ST,WESLEY COLLEGE - SOUTH PERTH,,SOUTH PERTH WA,W A,W A 6151,AUSTRALIA,-31.9812072,115.8659007
700662,PO BOX 223,SCOTCH COLLEGE,,PERTH,W A,W A 6010,AUSTRALIA,-31.9807436,115.7720955
700766,90 ROBERTS ROAD,PERTH MODERN SCHOOL,,SUBIACO,W A,W A 6008,AUSTRALIA,-31.9449884,115.8386603
700621,22 KALINDA DR,INTERNATIONAL SCH W AUSTRALIA,,CITY BEACH,W A,W A 6015,AUSTRALIA,-31.9367748,115.7716076
700817,ELLIOTT ROAD,SAINT MARYS ANGLICAN GIRLS SCH,,KARRINYUP,W A,W A 6018,AUSTRALIA,-31.8765697,115.7662694
700450,2 WINCHESTER ST,SOUTHPORT SCHOOL,,SOUTHPORT,QLD,QLD 4215,AUSTRALIA,-27.9854245,153.4141152
700819,LOT 4 JOHANNA ST,HILLS EDUCATIONAL FOUNDATION,,JIMBOOMBA QLD,,,AUSTRALIA,-27.8165485,153.0165326
700120,70 LAUGHLIN ST,GROVES CHRISTIAN COLLEGE,,KINGSTON,QLD,QLD 4114,AUSTRALIA,-27.6617349,153.1100612
700225,JOHN PAUL DRIVE,JOHN PAUL COLLEGE,,DAISY HILL,QLD,QLD 4127,AUSTRALIA,-27.6332656,153.1493281
700404,DARLING STREET,IPSWICH GRAMMAR SCHOOL,,IPSWICH,QLD,QLD 4305,AUSTRALIA,-27.6139011,152.7537859
700121,11 RUTHVEN ST CORINDA,SAINT AIDANS ANGLICAN GIRLS SC,,BRISBANE,QLD,QLD 4075,AUSTRALIA,-27.5384198,152.9790425
700016,322 WECKER RD CARINDALE,CITIPOINTE CHRISTIAN COLLEGE,,BRISBANE QLD,QLD,QLD 4152,AUSTRALIA,-27.5346906,153.1130608
700571,NEW ENGLAND HWY.,TOOWOOMBA CHRISTIAN COLLEGE,,HIGHFIELDS,QLD,QLD 4352,AUSTRALIA,-27.4891167,151.9467746
700767,KENSINGTON TCE,BRISBANE BOYS COLLEGE,,TOOWONG,QLD,QLD 4066,AUSTRALIA,-27.4878272,152.9878629
700010,78 BYWONG ST TOWOONG,QUEENSLAND ACDMY SCI MATH TECH,QUEENSLAND,BRISBANE,QLD,QLD 4066,AUSTRALIA,-27.4868926,152.9787435
700181,PO BOX 3357,SOMERVILLE HOUSE,SOUTH BRISBANE,BRISBANE,QLD,QLD 4101,AUSTRALIA,-27.4838369,153.0253155
700038,OAKLANDS PARADE,ANGLICAN CHURCH GRAMMAR SCHOOL,,EAST BRISBANE,QLD,QLD 4169,AUSTRALIA,-27.4813761,153.0516566
700403,PROSPECT STREET,LOWOOD STATE HIGH SCHOOL,,LOWOOD,QLD,QLD 4311,AUSTRALIA,-27.4679848,152.5830584
700182,GREGORY TERRACE SPRING HILL,BRISBANE GRAMMAR SCHOOL,,BRISBANE,QLD,QLD 4000,AUSTRALIA,-27.45953,153.0186439
700180,GREGORY TERRACE,BRISBANE GIRLS GRAMMAR SCHOOL,,BRISBANE,QLD,QLD 4000,AUSTRALIA,-27.4586866,153.0197274
700017,285 GREGORY TERRACE,SAINT JOSEPHS COLG GREGORY TRC,SPRING HILL,BRISBANE,QLD,QLD 4000,AUSTRALIA,-27.4572472,153.0252437
700642,5 NARRAWA DRIVE,SAMFORD VALLEY STEINER SCHOOL,,WIGHTS MOUNTAIN,QLD,QLD 4520,AUSTRALIA,-27.3923049,152.8590254
700035,185 OLD NORTHERN ROAD,GOOD SHEPHERD CHRISTIAN SCHOOL,ALBANY CREEK,BRISBANE,QLD,QLD 4035,AUSTRALIA,-27.3436938,152.9648156
700005,8-12 BUSINESS DRIVE,SCEE ACCEL CHRISTIAN HOME SCHL,,NARANGBA,QLD,QLD 4504,AUSTRALIA,-27.2018645,153.0092092
700570,MORETON DISTANCE EDUC,AUSTRALIAN CHRISTIAN HOME SCHL,LOCKED BAG 6000,CABOOLTURE BC,QLD,QLD 4510,AUSTRALIA,-27.0585233,152.9527908
700206,PO BOX 480,COOLUM BEACH CHRISTIAN COLLEGE,,COOLUM BEACH,QLD,QLD 4573,AUSTRALIA,-26.5357021,153.0465723
700402,PO BOX 2069,RIVERSIDE CHRISTIAN COLLEGE,,MARYBOROUGH,QLD,QLD 4650,AUSTRALIA,-25.5184134,152.6655026
700161,1315 DAWSON HIGHWAY,FAITH BAPTIST CHRISTIAN SCHOOL,,BURUA,QLD,QLD 4680,AUSTRALIA,-23.9362411,151.2205599
700050,PO BOX 4856,CENTRALIAN SR SECONDARY COLL,,ALICE SPRINGS,N T,N T 0871,AUSTRALIA,-23.6977569,133.8952663
700001,PO BOX 2508,OUR LADY SACRED HEART CATHOLIC,,ALICE SPRINGS,N T,N T 0871,AUSTRALIA,-23.6964236,133.8824236
700034,SCHWARZ CRESCENT,ST PHILIPS COLLEGE,,ALICE SPRINGS,N T,N T 0871,AUSTRALIA,-23.6898118,133.8827741
700640,BERSERKER ST N ROCKHAMPTN 4701,NORTH ROCKHAMPTON STATE HS,BX 5021 ROCKHAMPT MAIL CTE4702,N ROCKHMPTN,QLD,QLD 4702,AUSTRALIA,-23.3529015,150.5324051
700200,480 NORMAN RD,LIGHTHOUSE CHRISTIAN SCHOOL,,ROCKHAMPTON,QLD,QLD 4701,AUSTRALIA,-23.3382806,150.538314
700581,154 ROSS RIVER RD,CATHEDRAL SCHOOL,,MUNDINGBURRA,QLD,QLD 4814,AUSTRALIA,-19.296663,146.778813
700406,PO BOX 8,PALMERSTON SENIOR COLLEGE,,PALMERSTON,N T,N T 0830,AUSTRALIA,-12.495146,130.9728742
700229,BULLOCKY POINT,DARWIN HIGH SCHOOL,DARWIN,NORTH TERRITORY,N T,N T 0820,AUSTRALIA,-12.4398075,130.8330692
700400,PO BOX 42321,ESSINGTON INTRNTL SENIOR COLG,,CASUARINA,N T,N T 0811,AUSTRALIA,-12.3737274,130.8712488
713048,ISCHLERSTRASSE 13,SAINT GILGEN INTERNATIONAL SCH,,ST GILGEN,,5340,AUSTRIA,47.7670406,13.3669343
713044,MOOSSTRASSE 106,AMERICAN INTERNATIONAL SCHOOL,,SALZBURG,,A-5020,AUSTRIA,47.7757052,13.02171
713091,JOSEPH GALL GASSE 2,DANUBE INTERNATIONAL SCHOOL,,VIENNA,,1020,AUSTRIA,48.2098183,16.397365
713096,LITCHTENSTEINSTRASSE 39A,LYCEE FRANCAIS DE VIENNE,,VIENNA,,1190,AUSTRIA,48.2207672,16.3592184
713045,MELK STUDY ABROAD PROGRAM,SAINT JOHNS PREPARATORY SCH,STIFTS GYMNASIUM MELK,MELK,,A-3390,AUSTRIA,48.22647,15.34996
713049,BASTIENGASSE 36-38 HAUS 3,AMADEUS INTRNTL SCHL VIENNA,,VIENNA,,A-1180,AUSTRIA,48.2349062,16.3183563
713159,1220 WIEN,VIENNA INTERNATIONAL SCHOOL,STRASSE DER MENSCHENRECHTE 1,VIENNA,,,AUSTRIA,48.244774,16.431886
713080,SALMANNSDORFERST 47,AMERICAN INTL SCHOOL VIENNA,,VIENNA,,1190,AUSTRIA,48.2537497,16.287821
713158,WAGRAMER STRASSE 175,INTERNATIONAL CHRST SCH-VIENNA,PANETHGASSE 6A,VIENNA,,A-1220,AUSTRIA,48.258439,16.4487169
713050,AUBRUNNERWEG 4 A-4040,LINZ INTERNATIONAL SCH - AUHOF,,LINZ,,,AUSTRIA,48.3339143,14.3203974
661007,8 ABBASZADEH ST,BAKU OXFORD SCHOOL,,BAKU,,AZ1004,AZERBAIJAN,40.3561247,49.8234139
661005,SHOVKAT ALAKBAROVA 2,LYCEUM 6,,BAKU,,AZ1000,AZERBAIJAN,40.362387,49.8320534
661000,YENI YASAMAL STONEPAY ROYAL PK,INTERNATIONAL SCH AZERBAIJAN,,BAKU,,AZ1138,AZERBAIJAN,40.376792,49.790372
661003,7 BESTI BAGIROVA STREET,EUROPEAN AZERBAIJAN SCHOOL,,BAKU,,1141,AZERBAIJAN,40.3840633,49.8125497
661001,US EMBASSY BAKU,BAKU INTERNATIONAL SCHOOL,111 AZADLIQ PROSPECKTI,BAKU,,AZ1107,AZERBAIJAN,40.3869885,49.8430172
661004,FATALIKHAN KHOYSKI 109,ISTAK LYCEUM,,BAKU,,AZ1052,AZERBAIJAN,40.4047033,49.86486
611008,ZIGH HIGHWAY 22 KM TOWARDS,SABIS SUN INTERNATIONAL SCHOOL,H ALIYEV INTERNATIONAL AIRPORT,BAKU,,1123,AZERBAIJAN,40.4056245,50.0805359
661010,ZIYA BUNYADOV 3,IDRAK LYCEUM,BINAGADI,BAKU,,AZ1106,AZERBAIJAN,40.4114605,49.8355518
661006,9 AJAMI NAKHCHIVANI STR,DUNYA IB SCHOOL,,BAKU,,1130,AZERBAIJAN,40.4142519,49.8368474
661009,203 HEYDAR ALIYEV AVENUE,OXBRIDGE ACADEMY,,BAKU,,AZ1029,AZERBAIJAN,40.4205585,49.9097046
654018,BLDG 1525 RD 4226 W RIFFA 942,SHAIKHA HESSA GIRLS SCHOOL,PO BOX 37799,WEST RIFFA,,,BAHRAIN,26.1011109,50.545435
654021,PO BOX 3050,RIFFA VIEWS INTERNATIONAL SCHL,,MANAMA,,,BAHRAIN,26.1025627,50.5649667
654023,BLDG 22 ROAD # 42  BLOCK # 910,HAWAR INTERNATIONAL SCHOOL WLL,AL GHARBI,RIFFA,,,BAHRAIN,26.1182257,50.5523927
654015,1600 SHAIKH SALMAN HWY,KHAWIS SCHOOL-COURT CROWN PR,,RIFFA,,,BAHRAIN,26.1284863,50.5373415
654350,PO BOX 28503,NASEEM INTERNATIONAL SCHOOL,,W RIFFA,,,BAHRAIN,26.152951,50.5410566
654170,PO BOX 558,INDIAN SCHOOL BAHRAIN,,MANAMA,,,BAHRAIN,26.158445,50.5412964
654000,ROAD 4109 BLDG 119,ST CHRISTOPHER'S SCHOOL,PO BOX 32052,ISA TOWN 841,,,BAHRAIN,26.158538,50.542398
654013,BLDG 161 RD 4111 ISA TOWN 841,IBN KHULDOON NATIONAL SCHOOL,,MANAMA,,,BAHRAIN,26.1585854,50.5507796
654024,BLDG 301 RD 1115 BLOCK 611,ALIA NATIONAL SCHOOL,ALHAMRIYAH,SITRA,,,BAHRAIN,26.1609379,50.6163922
654166,POST OFFICE BOX 32411,BAHRAIN BAYAN SCHOOL,BLDG 230 ROAD 4111,ISA TOWN,,,BAHRAIN,26.1613836,50.5491434
654017,BLDG 1080 RD 1425 BLOCK 1014,BRITISH SCHOOL OF BAHRAIN,,HAMALA,,,BAHRAIN,26.1618124,50.471585
654012,PO BOX 2512,ABDUL RAHMAN KANOO INTNTL SCHL,,MANAMA,,,BAHRAIN,26.1797683,50.53691
654220,PO BOX 15826,MODERN KNOWLEDGE SCHOOL,,MANAMA,,,BAHRAIN,26.2065699,50.6019566
654016,BUILDING 399 ROAD 3009,NEW MILLENNIUM SCHOOL DPS,BLOCK 330 BUGHAZAL,MANAMA,,,BAHRAIN,26.2118321,50.5720572
654010,P O BOX 26489,ALHEKMA INTERNATIONAL MODEL SC,,ADLIYA,,,BAHRAIN,26.2144884,50.5847544
654022,BUILDING 214 ROAD 907,CREATIVITY PRIVATE SCHOOL,BLOCK 309 ADLIYA,MANAMA,,,BAHRAIN,26.220513,50.582306
654020,PO BOX 18041,AMA INTERNATIONAL SCHL-BAHRAIN,,MANAMA,,,BAHRAIN,26.2235305,50.5875935
654009,PO BOX 10079,SANABIL PRIVATE SCHOOL,BAHRAIN,MANAMA,,,BAHRAIN,26.2290666,50.4864264
654019,ROAD 641 BLDG 2070 AREA 306,AL RAJA SCHOOL,PO BOX 1,MANAMA,,,BAHRAIN,26.2322763,50.5845931
654014,PO BOX 50559,INTERNATIONAL SCHOOL CHOUEIFAT,,MANAMA,,,BAHRAIN,26.2777248,50.6658762
651004,7 RASHIK HAZARI LANE,INTERNATIONAL EDUCATION FNDTN,CHAWK BAZAR,CHITTAGONG,,4000,BANGLADESH,22.355967,91.8389008
651005,51 PANCHLAISH R/A RD 2,PRESIDENCY INTERNATIONAL SCHL,,CHITTAGONG,,,BANGLADESH,22.3609239,91.8336879
651006,HOUSE 11 ROAD 1 NASIRABAD,SUNSHINE GRAMMAR SCHOOL,HOUSING SOCIETY,CHITTAGONG,,4000,BANGLADESH,22.3642391,91.8280597
651024,HOUSE NO 95/1 ROAD NO 11/A,MAPLE LEAF INTERNATIONAL SCHL,DHANMONDI,DHAKA,,1209,BANGLADESH,23.7473126,90.3714978
651020,HOUSE NO 8&9 B ROAD NO 83,CHITTAGONG GRAMMAR SCHL DHAKA,GULSHAN-2,DHAKA,,1212,BANGLADESH,23.7983033,90.4137629
651010,12 UNITED NATIONS RD BARIDHARA,AMERICAN INTL SCHOOL/DHAKA,,DHAKA,,1212,BANGLADESH,23.8007767,90.4194495
651021,HOUSE #08 ROAD #83 GULSHAN-2,GREEN DALE INTERNATIONAL SCHL,,DHAKA,,1212,BANGLADESH,23.8016642,90.4132177
651002,PLOT 80 BLOCK E,INTERNATIONAL SCHOOL OF DHAKA,BAHUNDHARA R/A,DHAKA,,1229,BANGLADESH,23.8099066,90.4310576
651023,PLOT # 288/A ROAD #15 BLOCK C,EBENEZER INTERNATIONAL SCHOOL,BASHUNDHARA R/A,DHAKA,,1229,BANGLADESH,23.8170418,90.4297824
651022,PLOT 7 ROAD 6 SECTOR 6,INTERNATIONAL TURKISH HOPE SCH,UTTARA,DHAKA,,1230,BANGLADESH,23.8615005,90.4023305
890501,COLLYMORE ROCK,ST URSULA'S SCHOOL,,ST MICHAEL,,,BARBADOS,13.0936389,-59.5960058
890040,WATERFORD,COMBERMERE SCHOOL,,ST MICHAEL,,BB11050,BARBADOS,13.1171709,-59.6020505
890065,BLACK ROCK,ELLERSLIE SECONDARY SCHOOL,,ST MICHAEL,,BB12015,BARBADOS,13.1293074,-59.6262433
890502,HUSBANDS ST JAMES,CARIBBEAN UNION-QUEENS COLLEGE,,BRIDGETOWN,,,BARBADOS,13.1462374,-59.6235646
890550,MASSIAH ST,LODGE SCHOOL,,ST JOHN,,,BARBADOS,13.1668498,-59.4881773
890061,SOCIETY,CODRINGTON SCHOOL,,SAINT JOHNS,,BB 20008,BARBADOS,13.1715087,-59.4778698
716370,146 DREVE RICHELLE,SAINT JOHNS INTERNATIONAL SCH,,WATERLOO,,1410,BELGIUM,50.7047021,4.4150871
716121,9 AVENUE DU LYCEE FRANCAIS,LYCEE FRANCAIS JEAN MONNET,,BRUSSELS,,1180,BELGIUM,50.7884712,4.3454062
716240,19 KATTENBERG,INTERNATIONAL SCHOOL BRUSSELS,,BRUSSELS,,1170,BELGIUM,50.79087,4.417255
716122,RUE DE LA VICTOIRE 26,HARARI COLLEGE WORLDWIDE,,BRUSSELS,,1060,BELGIUM,50.8319741,4.3464771
574910,PATER DUPIERREUXLAAN 1,BRITISH SCHOOL OF BRUSSELS,,TERVUREN,,3080,BELGIUM,50.8320443,4.5246398
716123,URSULINENSTRAAT 4,SINT - JAN BERCHMANS COLLEGE,,BRUSSELS,,1000,BELGIUM,50.8417737,4.3488683
716130,WOLUWE-ST-LAMBERT,ATHENEE ROYAL,,BRUSSELS,,1200,BELGIUM,50.849615,4.4360956
716202,AV OSCAR JESPERS 75,EUROPEAN SCHOOL BRUSSELS II,,BRUSSELS,,1200,BELGIUM,50.8571807,4.4422474
716284,EUROPAWIJK 100,EUROPEAN SCHOOL MOL,,MOL,,B2400,BELGIUM,51.2013007,5.0449764
716060,JACOB JORDAENSSTRAAT 77,INTERNATIONAL EDUCATION FNDTN,,ANTWERP,,2018,BELGIUM,51.2084293,4.413917
716340,KLOOSTERSTRAAT 11,WICO CAMPUS SINT-JOZEF,,LOMMEL,,3920,BELGIUM,51.2414208,5.310951
716285,VELTWIJCKLAAN 180,ANTWERP INTERNATIONAL SCHOOL,2180 EKEREN,ANTWERP,,,BELGIUM,51.2806677,4.4302111
810024,41 NEW CITY AREA,TOLEDO COMMUNITY COLLEGE,,PUNTA GORDA TOWN,,,BELIZE,16.1052051,-88.8064495
810109,POST OFFICE BOX 84,STANN CREEK ECUMENICAL COLLEGE,,DANGRIGA,,,BELIZE,16.963194,-88.226453
810045,POST OFFICE BOX 163,SACRED HEART COLLEGE,,SAN IGNACIO CAYO,,,BELIZE,17.1610768,-89.0741112
810017,11/13 DEAN CRESCENT,QSI INTERNATIONAL SCHOOL BELIZ,UNIVERSITY HEIGHTS CAYO DIST,BELMOPAN,,,BELIZE,17.237252,-88.761298
810022,BELMOPAN COMPREHENSIVE SCHOOL,BELMOPAN COMPREHENSIVE SCHOOL,,BELMOPAN,,,BELIZE,17.245532,-88.7689387
810044,34 YARBOROUGH ROAD,WESLEY COLLEGE,POST OFFICE BOX 543,BELIZE CITY,,,BELIZE,17.4873161,-88.1904853
810020,71 REGENT STREET,ANGLICAN CATHEDRAL COLLEGE,POST OFFICE BOX 98,BELIZE CITY,,,BELIZE,17.4891393,-88.1877437
810050,6 HUTSON ST,SAINT CATHERINE ACADEMY,,BELIZE CITY,,,BELIZE,17.49684,-88.1826163
810043,PRINCESS MARGARET DRIVE,PALLOTTI HIGH SCHOOL,,BELIZE CITY,,,BELIZE,17.5050251,-88.1971102
810018,PRINCESS MARGARET DRIVE,BELIZE HIGH SCHOOL,,BELIZE CITY,,0,BELIZE,17.5068463,-88.1972662
810040,BOX 539 PRINCESS MARGARET DR,NAZARENE HIGH SCHOOL,,BELIZE CITY,,,BELIZE,17.5078097,-88.1984808
810100,PRINCESS MARGARET DR.,ST JOHNS COLLEGE HIGH SCHOOL,PO BOX 548,BELIZE CITY,,,BELIZE,17.513546,-88.1992421
810600,POST OFFICE BOX 23,SAN PEDRO HIGH SCHOOL,,SAN PEDRO TOWN,,,BELIZE,17.9246672,-87.9592862
810035,POST OFFICE BOX 64,MUFFLES COLLEGE,,ORANGE WALK TOWN,,,BELIZE,18.0867845,-88.5634774
810025,POST OFFICE BOX 63 COROZAL TWN,COROZAL COMMUNITY COLLEGE,COROZAL DISTRICT,COROZAL,,,BELIZE,18.3941597,-88.4058388
601005,LOT 126 127 ZONE RESIDENTIELLE,QSI INTERNATIONAL SCHL - BENIN,DE LA RADIO,COTONOU AHOUANLE,,02 BP 1087,BENIN,6.3553113,2.4167608
601001,HAIE VIVE,ENGLISH INTERNATIONAL SCHOOL,WEST AFRICA,COTONOU,,08BP0430,BENIN,6.357205,2.390975
601000,05 BP 2537 AKPAKPA CENTRE,AMERICAN INTL SCH OF COTONOU,,COTONOU LITTORAL,,,BENIN,6.3695322,2.4132338
601003,06 BP 700,NEW COVENANT AMERICAN SCHOOL,,COTONOU,,,BENIN,6.3695322,2.4132338
601002,BP 06 2457,INTERNATIONAL CHRST SCH BENIN,,COTONOU,,,BENIN,6.3702928,2.3912362
601004,BY PHARMQUICK OPPOSITE TUNDE,COMPLEXE SCOLAIRE DE LA CITE,MOTORS,COTONOU,,2524BP,BENIN,6.3702928,2.3912362
805260,PO BOX SN114,BERMUDA INSTITUTE OF SDA,,SOUTHAMPTON,,SN BX,BERMUDA,32.2607422,-64.8209034
805800,117 MIDDLE ROAD,WARWICK ACADEMY,,WARWICK,,PG01,BERMUDA,32.2759124,-64.7940588
805200,19 RICHMOND RD,BERMUDA HIGH SCHOOL,,PEMBROKE,,HM 08,BERMUDA,32.2955785,-64.7901232
805100,PO BOX HM 1004,MOUNT SAINT AGNES ACADEMY,,HAMILTON,,HMDX,BERMUDA,32.2966033,-64.7852759
805240,SCOTTS HILL ROAD,SANDYS SECONDARY SCHOOL,,SOMERSET,,6-Sep,BERMUDA,32.2976427,-64.8678088
805150,PO BOX HM 2224,SALTUS GRAMMAR SCHOOL,,HAMILTON,,HM JX,BERMUDA,32.2992868,-64.7877412
805805,PO BOX HM 2704,BERKELEY INSTITUTE,,HAMILTON,,HM KX,BERMUDA,32.3025361,-64.7936694
805080,1 CEDARBRIDGE LN,CEDARBRIDGE ACADEMY,,DEVONSHIRE,,DV02,BERMUDA,32.3028272,-64.7669935
805900,107 MIDDLE ROAD,SOMERSFIELD ACADEMY,,DEVONSHIRE,,DV06,BERMUDA,32.311081,-64.750508
805130,213 MIDDLE ROAD,BERMUDA CHRISTIAN ACADEMY,SOUTHAMPTON N EAST,SOUTHAMPTON,,SN04,BERMUDA,33.753539,-116.298306
663001,POST OFFICE BOX 1261,ROYAL ACADEMY,,PANGBISA PARO,,12001,BHUTAN,27.3299392,89.4519442
905640,POST OFFICE BOX 4640,SANTA CRUZ INTERNATIONAL SCH,,SANTA CRUZ,,,BOLIVIA,-17.8416683,-63.2379055
905499,KM 6 1/2 DOBLE VIA LA GUARDIA,SANTA CRUZ CHRISTIAN LEARN CTR,DETRAS DEL CEMENTERIO,CAJON SANTA CRUZ,,4049,BOLIVIA,-17.8351702,-63.2307368
905500,PO BOX 753,SANTA CRUZ COOPERATIVE SCHOOL,,SANTA CRUZ,,,BOLIVIA,-17.8043436,-63.2043198
905021,CAJON 736,CARACHIPAMPA CHRISTIAN SCHOOL,KM 10.5 AV. BLANCO GALINDO,COCHABAMBA,,,BOLIVIA,-17.3919717,-66.2554627
905040,KM 6 A SACABA,HUGHES SCHOOLS,AVENIDA OCTAVA,COCHABAMBA,,,BOLIVIA,-17.3845164,-66.1749039
905025,CASILLA 1247,CENTRO EDUC CRISTIANO BILINGUE,,COCHABAMBA,,,BOLIVIA,-17.3749212,-66.132001
905020,CASILLA 1395,COCHABAMBA COOPERATIVE SCHOOL,,COCHABAMBA,,,BOLIVIA,-17.3717374,-66.1323695
905015,AVENIDA ECOLOGICA KM 1.5,AMERICAN INTERNATIONAL SCHOOL,PO BOX 5309,COCHABAMBA,,,BOLIVIA,-17.3549937,-66.201961
905209,URBANIZACION VALLE DEL SOL EX,HIGHLANDS INTERNATIONAL SCHOOL,FABRICA LADRILLOS MALLASILLA,LA PAZ,,,BOLIVIA,-16.5643458,-68.10482
905320,CASILLA 1679,SAINT ANDREWS SCHOOL,,LA PAZ,,,BOLIVIA,-16.5496001,-68.0866893
905150,COLEGIO CALVERT,AMERICAN COOPERATIVE SCHOOL,CALLE 10 CALACOTO,LA PAZ,,,BOLIVIA,-16.542929,-68.0892977
905301,AV ALEXANDER 100-ACHUMANI,COLEGIO ALEMAN MARISCAL BRAUN,,LA PAZ,,605,BOLIVIA,-16.5290606,-68.0671907
710001,SPANJOLSKI TRG 1,UNITED WORLD COLLEGE,GIMNAZIJA MOSTAR/2ND FL,MOSTAR,,88000,BOSNIA AND HERZEGOVINA,43.3431517,17.8073667
710003,FRANCUSKE REVOLUCIJE BB,INTERNATIONAL HS OF SARAJEVO,,SARAJEVO,,,BOSNIA AND HERZEGOVINA,43.8178691,18.3094793
710004,NALINA 16 HRID,BLOOM PRIVATE INTERNATIONAL HS,,SARAJEVO,,71000,BOSNIA AND HERZEGOVINA,43.8531577,18.4411501
710002,SUTJESKA 1,DRUGA GIMNAZIJA SARAJEVO,,SARAJEVO,,71000,BOSNIA AND HERZEGOVINA,43.862073,18.4123853
710000,OMLADINSKA #16 VOGOSCA,QSI INTL SCH OF SARAJEVO,,SARAJEVO,,71320,BOSNIA AND HERZEGOVINA,43.8979078,18.3494317
604109,PLOT NO 22978 MMANGWEDI RD,WESTWOOD INTERNATIONAL SCHOOL,PHASE 4  PO BOX 2446,GABORONE,,,BOTSWANA,-24.6778105,25.8859361
604100,PRIVATE BAG 0045,MARU-A-PULA SCHOOL,,GABORONE,,,BOTSWANA,-24.647974,25.932301
604097,PRIVATE BAG BR06,LEARNING CENTRE SCHOOL,,GABORONE,,,BOTSWANA,-24.6341698,25.8813802
910024,AVENIDA CORONEL MARCOS 1959,WAY AMER SCHL MARISTA IPANEMA,PEDRA REDONDA,PORTO ALEGRE RS,,91760-000,BRAZIL,-30.130386,-51.2395415
910225,AV JOAO OBINO 110,PAN AMERICAN SCHL PORTO ALEGRE,,PORTO ALEGRE RS,,90470-150,BRAZIL,-30.0358919,-51.182506
910030,PRACA DOM SEBASTIAO 2,WAY AMRCN SCHL MARISTA ROSARIO,INDEPENDENCIA,PORTO ALEGRE RS,,90035-080,BRAZIL,-30.02965,-51.218465
910023,RUA RAMIRO BARCELOS 307 CENTRO,WAY AMRCN SC MARISTA APARECIDA,RIO GRANDE DO SUL,BENTO GONCALVES,,95700-074,BRAZIL,-29.1652354,-51.5151896
910056,AV 7 DE SETEMBRO 1621,UNIVERSIDADE REG INT ERECHIM,,ERECHIM,,99709-910,BRAZIL,-27.6483905,-52.2677053
910601,AVENIDA 15 DE NOVEMBRO 237,COLEGIO SAO JOSE,RIO GRANDE DO SUL,ERECHIM,,99700-000,BRAZIL,-27.636556,-52.270527
910051,420E MATO GROSSO STREET,COLEGIO TRILINGUE INOVACAO,JD ITALIA,CHAPECO,,89802-272,BRAZIL,-27.109836,-52.619597
910242,RUA GOTHARD KAESEMODEL,ESCOLA INTERNACIONAL-JOINVILLE,1024/170,JOINVILLE,,89203-522,BRAZIL,-26.3194133,-48.8554602
910027,RUA BISPO DOM JOSE 2674,WAY AMR SCH MARISTA PARANAENSE,SEMINARIO,CURITIBA PARANA,,80440-080,BRAZIL,-25.447295,-49.298068
910005,RUA PROFESSOR PEDRO PARIGOT DE,COLEGIO POSITIVO INTERNACIONAL,SOUZA 5300 PARANA,CURITIBA,,81280-330,BRAZIL,-25.4446593,-49.3602721
910021,RUA JOSE VALLE 751,WAY AMRCN SCH MARISTA ANJO GUA,SANTA FELICIDADE,CURITIBA PR,,82020-250,BRAZIL,-25.403549,-49.3094399
910131,BRASILIO CUMAN ST 2500,COLEGIO INTERNACIONAL EVEREST,,CURITIBA,,82315-010,BRAZIL,-25.4032473,-49.3699828
910031,R PROF JOAQUIM DE MATOS BARRE-,WAY AMERICAN SCHL MAR SAN MAR,TO 98 SAO LOURENCO,CURITIBA PARANA,,82200-210,BRAZIL,-25.3893371,-49.2704145
910130,RUA EUGENIO BERTOLLI 3900,INTERNATIONAL SCHOOL CURITIBA,SANTA FELICIDADE,CURITIBA,,,BRAZIL,-25.3692518,-49.3270833
910675,RUA CASSIO DE CAMPOS,PAN AMERICAN CHRISTIAN ACADEMY,NOGUEIRA  393,SAO PAULO SP,,04829-310,BRAZIL,-23.729732,-46.713309
910052,RUA SEBASTIAO COCO 21 NOVA,COLEGIO PETROPOLIS,PETROPOLIS SBCAMPO,SAO PAULO,,09771-070,BRAZIL,-23.701976,-46.544401
910010,70 SILVEIRAS ST,LICEU JARDIM,SAO PAULO,SANTO ANDRE,,09071-100,BRAZIL,-23.6530728,-46.5454599
910750,R VIGARIO JOAO PONTES 537,CHAPEL SCHOOL,,SAO PAULO SP,,04748-000,BRAZIL,-23.6493113,-46.6892522
910586,RUA VISCONDE PORTO SEGURO 391,ESCOLA SUICO - BRASILEIRA,SAO PAULO,SAO PAULO,,04642-000,BRAZIL,-23.6464615,-46.6898775
910650,AV GIOVANNI GRONCHI,ESCOLA GRADUADA DE SAO PAULO,4710,SAO PAULO,,05724-002,BRAZIL,-23.6290846,-46.7340331
910598,RUA FLORIANO PEIXOTO DOS,COL VISCONDE DE PORTO SEGURO,"SANTOS, 55                    ",SAO PAULO SP,,05658 080,BRAZIL,-23.6052745,-46.7201262
910058,RUA PEDRO AVANCINE 73,AVENUES SAO PAULO WORLD SCHOOL,SP,SAO PAULO,,05679-160,BRAZIL,-23.6052435,-46.7006833
910057,RUA DIOGO JACOME 848,ESCOLA MOBILE,,SAO PAULO,,04512-001,BRAZIL,-23.5991488,-46.6691203
910029,RUA DOMINGOS DE MORAIS 2565,WAY AMRCN SCH MRST ARQDCSNO,VILA MARIANA,SAO PAOLO SP,,04035-001,BRAZIL,-23.5988773,-46.6362546
910585,RUA ESTELA 268,COLEGIO BANDEIRANTES,SAO PAULO,SP,,04011-001,BRAZIL,-23.5775989,-46.6433704
910589,RUA VERGUEIRO 1951,COLEGIO ETAPA,,SAO PAULO,,04101-000,BRAZIL,-23.5759094,-46.6404295
910006,RUA DO EMISSARIO 333,ST NICHOLAS SCHOOL,SP,SAO PAULO,,05423-070,BRAZIL,-23.5719322,-46.6936764
910700,RUA JUQUIA 166,FUNDACAO ANGLO BRASILEIRA,SAO PAULO,SAO PAULO,,01440-903,BRAZIL,-23.5708583,-46.6816743
910800,ALAMEDA JAU 1061,COLEGIO DANTE ALIGHIERI,,SAO PAULO,,01420-001,BRAZIL,-23.5634584,-46.6590182
910380,RUA JOAQUIM ANTUNES 678,ST FRANCIS COLLEGE,PINHEIROS,SAO PAULO,,05415-001,BRAZIL,-23.5623061,-46.6824173
910043,RUA HADDOCK LOBO 400,COLEGIO SAO LUIS,CERQUEIRA CESAR,SAO PAULO,,01414-902,BRAZIL,-23.556707,-46.6605806
910602,RUA FRANCISCO PATI 40,ESCOLA DO FUTURO,,SAO PAULO,,,BRAZIL,-23.5556453,-46.7571537
910595,RUA OROBO 383,COLEGIO SANTA CRUZ,,SAO PAULO SP,,5466,BRAZIL,-23.5510764,-46.7170518
910041,RUA ALEGRETE-168,COLEGIO NOTRE DAME,SAO PAULO,SUMARE,,01254-010,BRAZIL,-23.5481021,-46.6800459
910009,RUA CAIUBI 123-126 PERDIZES,INSTITUTO PENTAGONO DE ENSINO,,SAO PAULO,,05010-000,BRAZIL,-23.5415149,-46.6698015
910590,AV HIGIENOPOLIS 996,COLEGIO RIO BRANCO,,SAO PAULO SP,,,BRAZIL,-23.540954,-46.6606324
910756,AV MARQUES DE SAO VICENTE 1748,ESCOLA BEIT YAACOV,VARZEA DA BARRA FUNDA,SAO PAULO,,01139-002,BRAZIL,-23.5179195,-46.6777018
910004,ALAMEDA CASTANHEIRAS 250,ASSOCIACAO EDUCACIONAL ESCOLA,,SANTANA DE PARNA,,06543-510,BRAZIL,-23.471102,-46.850166
910063,AVE GIL DE ABREU SOUZA 1850,ST JAMES INTERNATIONAL SCHOOL,,LONDRINA PARANA,,86058-100,BRAZIL,-23.3490034,-51.2077844
910011,AV ALFREDO IGNACIO NOGUEIRA -,COLEGIO PLANCK,PENIDO 550 RES AQUARIUS PARK,SAO JOSE DOS CAM,,12246-000,BRAZIL,-23.2264317,-45.9114565
910584,329 LAURENT MARTINS ST,LEONARDO DA VINCI EDUCACIONAL,JD ESPLANADA II,SAO JOSE DOS CAM,,12242431,BRAZIL,-23.198896,-45.9109833
910033,AV DOUTOR SABASTIAO MENDES DA-,WAY AMRCN SCH VCTN SAO VIC PAL,SILVA 706,JUNDIAI SP,,13208-090,BRAZIL,-23.194517,-46.89321
910300,AV INDEPENDENCIA 5656,SANT ANNA INTERNATIONAL SCHOOL,,VINHEDO,,13280,BRAZIL,-23.025649,-46.9817714
910259,AV PREFEITO DULCIDIO,RIO INTERNATIONAL SCHOOL,CARDOSO 4351 BARRA DA TIJUCA,RIO DE JANEIRO,,22793010,BRAZIL,-23.0065096,-43.3589185
910588,AVE DR ANTONIO BENTO FERRAZ 95,COLEGIO ETAPA VALINHOS,,VALINHOS,,13278-160,BRAZIL,-23.0010219,-47.0092779
910241,RUA MARIO AUTUORI 100,BRITISH SCHOOL-RIO DE JANEIRO,,RIO DE JANEIRO,,22793-270,BRAZIL,-22.9958343,-43.392016
910450,ESTRADA DA GAVEA 132,ESCOLA AMERI DO RIO DE JANEIRO,,RIO DE JANEIRO,,22451-260,BRAZIL,-22.9834299,-43.2466514
910060,AVENIDA IMPERATRIZ LEOPOLDINA,WAY AMERICAN SCH - MAR S J BAR,455,RIO DE JANEIRO,,22775-020,BRAZIL,-22.9667936,-43.382328
910250,RUA VISCONDE DE SILVA,COLEGIO ANDREWS,HUMAITA,RIO DE JANEIRO,,22250,BRAZIL,-22.9585884,-43.1975139
910550,RUA VISCONDE DE CARAVELAS 48,OUR LADY OF MERCY SCHOOL,BOTAFOGO,RIO DE JANEIRO,,22271022,BRAZIL,-22.9562625,-43.1935047
910003,RUA GENERAL SEVERIANO 159,ESCOLA ELEVA,,RIO DE JANEIRO,,22290-040,BRAZIL,-22.954475,-43.1791937
910240,429 AVENIDA PASTEUR URCA RIO,BRITISH SCHOOL OF RIO,,RIO DE JANEIRO,,22290240,BRAZIL,-22.9536561,-43.1693011
910017,PRAIA DE BOTAFOGO 308,WAY AMERICAN SCH - PH BOTAFOGO,,RIO DE JANEIRO,,22250-040,BRAZIL,-22.9446787,-43.1830052
910059,RUA CONDE DE BONFIM 1067,WAY AMERICAN SCH - MAR SAO J T,,RIO DE JANEIRO,,20530-001,BRAZIL,-22.9419049,-43.2509334
910015,RUA PROFESSOR GABIZO 211,WAY AMERICAN SCH - PH TIJUCA,,RIO DE JANEIRO,,20271-064,BRAZIL,-22.917533,-43.221113
910016,RUA GAVIAO PEIXOTO 179,WAY AMERICAN SCHOOL- PH ICARAI,,NITEROI RDJ,,24230-091,BRAZIL,-22.9039781,-43.1095344
910596,RUA EGBERTO FERREIRA DE ARRUDA,COLEGIO NOTRE DAME DE CAMPINAS,CAMARGO 151 SAO PAULO,CAMPINAS,,13092-621,BRAZIL,-22.8953113,-47.002738
910050,RUA CAJAMAR 35,AMERICAN SCHOOL OF CAMPINAS,CHACARA DA BARRA,CAMPINAS,,13090-860,BRAZIL,-22.8833493,-47.0365999
910754,AVE CEZIRA GIOVANONI MORETTI,COLEGIO LUIZ DE QUEIROZ,1100 RESERVA JEQUITIBA SP,PIRACICABA,,13414-157,BRAZIL,-22.693965,-47.6236677
910001,RUA JOSE BONGIOVANI 1595,ESCOLA EDUC BASICA PRUDENTINA,,PRESIDENTE SAO P,,19061-450,BRAZIL,-22.1301858,-51.4089374
910034,RUA CHILE 1750 JD STA ANGELA,COLEGIO SANTA URSULA,RIBEIRAO PRETO CEP 14020-610,SAO PAULO,,,BRAZIL,-21.2101452,-47.8088842
910587,AV MATO GROSSO 227,COLEGIO SALESIANO DOM BASCO,CASA POSTAL 128 MS,CAMPO GRANDE,,79002-905,BRAZIL,-20.4557258,-54.6176444
910028,AVENIDA CHAMPAGNAT 925 CENTRO,WAY AMR SCH MAR NOS SEN DA PEN,,VILA VELHA ES,,29100-011,BRAZIL,-20.3362703,-40.290972
910840,RUA ELIAS TOMMASI SOBRINHO,CENTRO EDUCL LEONARDO DA VINCI,154 SANTA LUCIA,VITORIA,,29056910,BRAZIL,-20.307968,-40.301757
910038,RUA CONSTANTE SODRE 655,CENTRO EDUC PRIMEIRO MUNDO,SANTA LUCIA,VITORIA,,29055-420,BRAZIL,-20.300928,-40.299659
910040,AV PROFESOR MARIO WERNECK 3301,ASSOCIACAO INTL BELO HORIZONTE,BAIRRO BURITIS MG,BELO HORIZONTE,,30575-180,BRAZIL,-19.9772196,-43.9747624
910025,RUA LAVRAS 225 SAO PEDRO,WAY AMER SCH MARISTA DOM SLVRO,,BELO HORIZONTE,,30330-010,BRAZIL,-19.9422981,-43.9349276
910002,PERNAMBUCO ST 880,COLEGIO SANTO ANTONIO,,BELO HORIZONTE,,30130151,BRAZIL,-19.935184,-43.9349762
910805,CAIXA POSTAL 7,NEW TRIBES MISSION SCH VIANOP,RUA 19 DE AGOSTA 10,VIANOPOLIS GOIAS,,75260,BRAZIL,-16.7409861,-48.5163566
910008,AV T-54 QD 101 LT 12/13,COLEGIO ARENA ARENA ENSINO MED,SETOR BUENO GOIAS,GOIANIA,,74215-160,BRAZIL,-16.7060101,-49.2729306
910062,RUA 1139 QUADRA 251 LOTE 13E,WAY AMERICAN SCH - INTEGRADO A,,GOIANIA GOIAS,,74180-180,BRAZIL,-16.7006209,-49.2560461
910032,AV 85 1440 - ST MARISTA,WAY AMRCN SC - MARISTA GOIANIA,,GOIANIA GOIAS,,74160-010,BRAZIL,-16.6939789,-49.263699
910020,RUA J-47 120 ST JAO,WAY AMERICAN SCH INTEGRADO JAO,,GOIANIA GOIAS,,74673-640,BRAZIL,-16.6473968,-49.2236948
910143,SHIS QI 21 AREA ESPECIAL CONJ1,SCHOOL OF THE NATIONS,LAGO SUL CP 7093,BRASILIA,,71619-970,BRAZIL,-15.8541813,-47.8506951
910014,RUA 14 SUL LOTE 6 AGUAS CLARAS,WAY AMRCN S SIGMA AGUAS CLARAS,,BRASILIA DF,,71939-720,BRAZIL,-15.8384906,-48.0190831
910597,SGAS 914 CONJ C LOTES 67/68,BRASILIA INTERNATIONAL SCHOOL,ASA SUL,BRASILIA,,70390-140,BRAZIL,-15.8225763,-47.9266223
910042,SGAS 605,AMERICAN SCHOOL OF BRASILIA,CONJUNTO E LOTES 34/37,BRASILIA,,70200-650,BRAZIL,-15.8174784,-47.889686
910012,SGAS 912 CONJUNTO A,WAY AMERICAN SCH SIGMA ASA SUL,,BRASILIA DF,,70390-120,BRAZIL,-15.8153915,-47.92103
910053,QS 03 RUA 420 LOTE 02,WAY AMERICAN SC LDV TAGUATINGA,TAGUATINGA,BRASILIA DF,,71953-100,BRAZIL,-15.8107481,-48.065751
910013,SGAN 910 MODULO E,WAY AMERICAN S SIGMA ASA NORTE,,BRASILIA DF,,70790-100,BRAZIL,-15.7942688,-47.881093
910061,SGAS 615,WAY AMERICAN SCH - MARISTA A S,,BRASILIA DF,,70200-690,BRAZIL,-15.7942688,-47.881093
910054,SGAN 914 CONJUNTO 1,WAY AMERCN SCHL LDV ASA NORTE,ASA NORTE,BRASILIA DF,,70790-140,BRAZIL,-15.7474054,-47.9014186
910154,RUA PRINCESA LEOPOLDINA S/M,SIL BRANCH SCHOOL-CUIABA,CP 3006 COXIPO DA PONT,CUIABA MT,,78080-970,BRAZIL,-15.6017672,-56.0526847
910580,LOTEAMENTO PATAMARES,ESCOLA PAN AMERICANA DA BAHIA,CX POSTAL,SALVADOR BAHIA,,41680060,BRAZIL,-12.9565589,-38.4008645
910200,RUA SA E SOUSA 408,AMERICAN SCHOOL OF RECIFE,BOA VIAGEM,RECIFE,,51030-065,BRAZIL,-8.1363967,-34.9072255
910018,AV. RUI BARBOSA 1104 - GRACAS,WAY AMERICAN SCH MARISTA SAO L,PERNAMBUCO,RECIFE,,52050-000,BRAZIL,-8.0427086,-34.9015135
910022,RUA APODI 330 TIROL,WAY AMERICAN SCH MARISTA NATAL,RIO GRANDE DO NORTE,NATAL,,59020-130,BRAZIL,-5.7901109,-35.2046715
910680,665 ISRAEL BEZERRA STREET,ESCOLA 21 DE MARCO,CEARA,FORTALEZA,,60.135.460,BRAZIL,-3.7980473,-38.4755525
910165,CAIXA POSTAL 1421,NEW TRIBES MISSION SCHOOL PQQ,MANAUS,AMAZONAS,,69065-970,BRAZIL,-3.1268,-60.0057133
910007,3259-PARQUE DAS LARAJEIRAS,ESCOLAS NILTON LINS,MANAUS AMAZONAS,FLORES,,69058-040,BRAZIL,-3.0582191,-60.0068951
910026,AVENIDA NAZARE 902 NAZARE,WAY AMER SCHL - MARISTA NAZARE,,BELEM PARA,,66035-145,BRAZIL,-1.4523331,-48.4853375
910039,AGENCIA CABANAGEM 66613-970,AMAZON VALLEY ACADEMY,,BELEM PARA,,,BRAZIL,-1.3877126,-48.4156412
910055,SGAN 702 BLOCO B,WAY AMER SC MRST JOAO PAULO II,ASA NORTE,BRASILIA DF,,70710-700,BRAZIL,33.836081,-81.1637245
910019,RUA FRANCISCO MARENGO 1317,WAY AMRC S VIC SNT ANT LISBOA,TATAUPE,SAO PAULO,,03313-001,BRAZIL,38.7222524,-9.1393366
652011,JALAN DATO HAJI AHMAD BERAKAS,INTERNATIONAL SCHOOL BRUNEI,BANDAR,SERI BEGAWAN,,BB1114,BRUNEI,4.9619665,114.9916702
652010,PO BOX 1408,JERUDONG INTERNATIONAL SCHOOL,,BNDR SERI BGAWAN,,,BRUNEI,4.9691039,114.8797436
718188,C/O CHERESHA CHELEBIEVA ARDA 2,TECHNICAL SCH FOR ELECTRONICS,,PLOVDIV,,4000,BULGARIA,42.1448068,24.7560314
718002,7 LADY STRANGEFORD STREET,CLASSIC SECONDARY PRIVATE SCHL,,PLOVDIV,,4000,BULGARIA,42.14709,24.74717
718001,ZORNITSA,GPAE GEO MILEV,,BURGAS,,8018,BULGARIA,42.5139637,27.4696408
718003,BUL YURIY GAGARIN 116,GOETHE SCHULE,,PERNIK,,2303,BULGARIA,42.6108341,23.0964971
718000,LOZENSKI PAT,AMERICAN ENGLISH ACADEMY,,SOFIA,,1151,BULGARIA,42.6121266,23.4604256
718189,SIYANIE STREET 1 PANCHAREVO,ANGLO AMERICAN SCHOOL OF SOFIA,,SOFIA,,1137,BULGARIA,42.615242,23.393972
718004,BUL YURIY GOGARIN 11B,AMERICAN ACADEMY OF EDUCATION,,PERNIK,,2303,BULGARIA,42.6169869,23.0820005
718180,FLOYD BLACK LANE,AMERICAN COLLEGE OF SOFIA,PO BOX 873,SOFIA,,1000,BULGARIA,42.6337441,23.3681883
718139,15 APRILOVSKA ST,APRILOV NATIONAL HIGH SCHOOL,,GABROVO,,5300,BULGARIA,42.87063,25.31682
605008,BEHIND KINGS CONFERENCE CENTER,BURUNDI AMERICAN INTERNATIONAL,AVENUE DU LARGE KININDO,BUJUMBURA,,,BURUNDI,-3.4071405,29.3460549
655023,PHUM CHUMPOSKA-EK ST 112,LIGER LEARNING CENTER,SANGKAT PREKTHMEY KHAN MEAN CH,PHNOM PENH,,,CAMBODIA,11.4826158,104.9681827
655040,2843 ST 3 SANGKAT TONLE BASAK,PARAGON INTRNTNL SCHL CAMBODIA,KHAN CHAM KAR MORN,PHNOM PENH,,12301,CAMBODIA,11.548769,104.933654
655025,HUN NEANG BOULEVARD,INTERNATIONAL SCH PHNOM PENH,,CHAK ANGKRE KROM,,,CAMBODIA,11.5514174,104.8735566
655030,ST 2004 TRAPANG CHHOUK VL,NORTHBRIDGE INTL SCH CAMBODIA,TEUKTHLA COMMUNE SANSOK DISTRC,PHNOM PENH,,3,CAMBODIA,11.5514174,104.8735566
655001,#107 ST 2004,CIA FIRST INTERNATIONAL SCHOOL,,PHNOM PENH,,,CAMBODIA,11.5528112,104.8843251
655027,NO 94 STREET 315,ABUNDANT LIFE INTRNTL SCHOOL,TOULKORK,PHNOM PENH,,,CAMBODIA,11.5778435,104.8961654
655002,NO 84 ST 135,FOOTPRINTS INTL SCH TOUL TM PG,,PHNOM PENH PHNOM,,12310,CAMBODIA,11.5797091,104.8918913
655000,PO BOX 1534 HOUSE 928 ST 1015,LOGOS INTERNATIONAL SCHOOL,"PHNOM PENH THMEI, SEN SOK     ",PHNOM PENH,,,CAMBODIA,11.5848828,104.871762
655026,PHUM KRANG ANGKRONG 2 SANGKAT,HOPE INTERNATIONAL SCHOOL,KRANG THNONG KHAN SEN SOK,PHNOM PENH,,12411,CAMBODIA,11.587217,104.845946
655041,PO BOX 93298,JAY PRITZKER ACADEMY,,SIEM REAP,,,CAMBODIA,13.3964089,103.735426
607260,SIL BP 1299,RAIN FOREST INTERNATIONAL SCH,,YAOUNDE,,,CAMEROON,3.8014482,11.5550021
607040,PO BOX 3969,AFRICAN AMERICAN ACADEMY,,DOUATA,,,CAMEROON,4.0299945,9.6879583
607005,RUE 1036 FACE CAMWATER,ENKO BONANJO INTERNATIONAL SCH,BONANJO,DOUALA,,,CAMEROON,4.0306198,9.6901318
607006,BOX 263,CATHOLIC INSTITUTE - BAFOUSSAM,WESTERN REGION,BAFOUSSAM,,,CAMEROON,5.4815596,10.4271347
607041,LONGLA STREET MANKON,LONGLA COMPREHENSIVE COLLEGE,PO BOX 143,BAMENDA,,237 143,CAMEROON,5.960541,10.1584214
825326,RURAL ROUTE #2,LIVING WATERS CHRISTIAN ACAD,,GRANVLLE FRY,NS,B0S 1K0,CANADA,29.541192,-95.777445
822212,BOX 9,EMMANUEL CHRISTIAN SCHOOL,,KENVILLE,MB,R0L 0Z0,CANADA,36.389508,-97.909823
826280,170 MAIN STREET EAST,KINGSVILLE DISTRICT HS,,KINGSVILLE,ON,N9Y 1A5,CANADA,42.0390623,-82.7313577
826296,120 ELLISON AVE,CARDINAL CARTER CATHOLIC HS,,LEAMINGTON,ON,N8H 5C7,CANADA,42.0419259,-82.6171272
826295,125 TALBOT ST W,LEAMINGTON DIST SECONDARY SCH,,LEAMINGTON,ON,N8H 1N2,CANADA,42.0456661,-82.6103394
826009,130 SANDWICH ST S,GENERAL AMHERST HIGH SCHOOL,,AMHERSTBURG,ON,N9V 1Z8,CANADA,42.1063488,-83.1109446
826167,43 FOX STREET,ROCK OF HELP CHRISTIAN ACADEMY,,ESSEX,ON,N8M 2S1,CANADA,42.1751953,-82.8207164
826151,244 TALBOT ST N,ESSEX DISTRICT HIGH SCHOOL,,ESSEX,ON,N8M 2E1,CANADA,42.1792268,-82.8291311
826083,2800 NORTH TOWNLINE,SAINT THOMAS VILLANOVA SEC SCH,LASALLE RR #3,WINDSOR,ON,N9A 6Z6,CANADA,42.185963,-83.039667
826000,7050 MALDEN ROAD,SANDWICH SECONDARY SCHOOL,,WINDSOR,ON,N9J 2T5,CANADA,42.2239845,-83.0592849
826979,925 COUSINEAU RD,ACADEMIE STE CECILE INTL SCH,,WINDSOR,ON,N9G 1V8,CANADA,42.242677,-83.0057045
826732,97 QUEEN STREET SOUTH,TILBURY DISTRICT HIGH SCHOOL,,TILBURY,ON,N0P 2L0,CANADA,42.2519323,-82.4332425
821819,4490 7TH CONCESSION,WINDSOR CHRIST FELLOWSHIP ACAD,,WINDSOR,ON,N9A 6J3,CANADA,42.2539419,-82.9596567
826975,1800 LIBERTY ST,VINCENT MASSEY SEC SCHOOL,,WINDSOR,ON,N9E 1J2,CANADA,42.2599344,-83.0280994
826974,1400 NORTHWOOD RD,HOLY NAMES HIGH SCHOOL,,WINDSOR,ON,N9E 1A4,CANADA,42.277476,-83.033718
826994,600 E C ROW AVE W,ECOLE SECONDAIRE EJ LAJEUNESSE,,WINDSOR,ON,N9E 1A5,CANADA,42.2775911,-83.0208783
826997,939 NORTHWOOD ST,MARANATHA CHRISTIAN ACAD SEC,,WINDSOR,ON,N9E 1A2,CANADA,42.2781455,-83.0256478
826543,11555 SHIELDS ST,TECUMSEH VISTA ACADEMY SECND,,TECUMSEH,ON,N8N 0C1,CANADA,42.2805892,-82.8919234
826031,333 SOUTH STREET,BELLE RIVER DISTRICT HS,,BELLE RIVER,ON,N0R 1A0,CANADA,42.2881209,-82.7111152
826253,1775 TOTTEN ST,ECOLE SEC DE LAMOTHE-CADILLAC,,WINDSOR,ON,N9B 1X4,CANADA,42.288895,-83.0455283
826718,1200 OAKWOOD DR SS# 3,SAINT ANNE CATHOLIC HIGH SCH,,BELLE RIVER,ON,N0R 1A0,CANADA,42.289106,-82.765594
826963,1100 HURON CHURCH ROAD,ASSUMPTION COLLEGE SCHOOL,,WINDSOR,ON,N9C 2K7,CANADA,42.294861,-83.061562
826967,245 TECUMSEH RD E,HON W C KENNEDY COLLEGIATE,,WINDSOR,ON,N8X 2R2,CANADA,42.2958592,-83.0208807
826972,441 TECUMSEH RD E,CATHOLIC CENTRAL HIGH SCHOOL,,WINDSOR,ON,N8X 2R7,CANADA,42.29705,-83.0183257
826968,749 FELIX AVENUE,J L FORSTER SECONDARY SCHOOL,,WINDSOR,ON,N9C 3K9,CANADA,42.2985462,-83.0695264
826978,1930 ROSSINI BLVD,W F HERMAN COLLEGIATE INST,,WINDSOR,ON,N8W 4P5,CANADA,42.3080738,-82.9746151
826005,5420 EMPRESS ST,WINDSOR ISLAMIC HIGH SCHOOL,,WINDSOR,ON,N8T 1B4,CANADA,42.311093,-82.96139
826601,13605 ST GREGORY'S RD,ECOLE SECONDAIRE L ESSOR,,WINDSOR,ON,N8N 3E4,CANADA,42.3144175,-82.8632004
826973,2425 CLOVER AVE,ST JOSEPHS HIGH SCHOOL,,WINDSOR,ON,N8P 2A3,CANADA,42.3168561,-82.9121975
826976,2100 RICHMOND STREET,WALKERVILLE COLLEGIATE INST,,WINDSOR,ON,N8Y 1L4,CANADA,42.3171244,-83.0065008
826096,8787 MCHUGH ST,A21 ACADEMY,,WINDSOR,ON,N8S 0A1,CANADA,42.3187165,-82.9277875
826964,910 RAYMO ROAD,F J BRENNAN CATHOLIC HIGH SCH,,WINDSOR,ON,N8Y 4A6,CANADA,42.324782,-82.975601
826585,8465 JEROME ST,RIVERSIDE SECONDARY SCHOOL,,WINDSOR,ON,N8S 1W8,CANADA,42.3302289,-82.9362507
826041,163 CHATHAM ST,BLENHEIM DISTRICT HIGH SCHOOL,,BLENHEIM,ON,N0P 1A0,CANADA,42.3335804,-81.9919312
826241,475 KEIL DRIVE SOUTH,CHATHAM CHRISTIAN HIGH SCHOOL,,CHATHAM,ON,N7M 6L8,CANADA,42.3816827,-82.1932091
826088,300 CECILE AVENUE,JOHN MCGREGOR SECONDARY SCH,,CHATHAM,ON,N7M 2C6,CANADA,42.3834533,-82.1749834
821628,14 RUE NOTRE DAME,ECOLE SECONDAIRE DE PAIN COURT,PO BOX 100,PAIN COURT,ON,N0P 1Z0,CANADA,42.3916477,-82.2954055
826091,85 GRAND AVE W,URSULINE COLLEGE,,CHATHAM,ON,N7L 1B6,CANADA,42.4063178,-82.1955433
826087,285 MCNAUGHTON AVENUE EAST,CHATHAM KENT SECONDARY SCHOOL,,CHATHAM,ON,N7L 2G7,CANADA,42.4217273,-82.1919255
826581,BOX 970,RIDGETOWN DISTRICT HIGH SCHOOL,,RIDGETOWN,ON,N0P 2C0,CANADA,42.4444798,-81.882272
826128,231 ST GEORGE ST N,LAMBTON-KENT COMPOSITE SCHOOL,,DRESDEN,ON,N0P 1M0,CANADA,42.595388,-82.1773879
826902,920 ELGIN ST,WALLACEBURG DISTRICT SEC SCH,,WALLACEBURG,ON,N8A 3E1,CANADA,42.5964763,-82.3914586
826923,139 GRAHAM ST,WEST ELGIN SECONDARY SCHOOL,,WEST LORNE,ON,N0L 2P0,CANADA,42.598233,-81.598599
826292,POST OFFICE BOX 159,VALLEY HEIGHTS SECONDARY SCH,,LANGTON,ON,N0E 1G0,CANADA,42.6931864,-80.5410625
826182,PO BOX 370,GLENCOE DISTRICT HIGH SCHOOL,,GLENCOE,ON,N0L 1M0,CANADA,42.7416701,-81.7134547
826609,100 BILL MARTYN PKWY.,SAINT JOSEPHS HIGH SCHOOL,,ST THOMAS,ON,N5R 6A7,CANADA,42.7542997,-81.1692815
826610,241 SUNSET DR,PARKSIDE COLLEGIATE INSTITUTE,,ST THOMAS,ON,N5R 3C2,CANADA,42.755919,-81.1930415
826607,201 CHESTNUT STREET,CENTRAL ELGIN COLLEGIATE INST,,SAINT THOMAS,ON,N5R 2B5,CANADA,42.7700861,-81.173915
826020,362 TALBOT ST W,EAST ELGIN SECONDARY SCHOOL,,AYLMER,ON,N5H 1K6,CANADA,42.7725162,-80.9915392
826606,41 FLORA ST,ARTHUR VOADEN SECONDARY SCHOOL,,SAINT THOMAS,ON,N5P 2X5,CANADA,42.7802948,-81.1881644
826608,128 EVERGREEN HILL ROAD,HOLY TRINITY CATHOLIC HIGH SCH,,SIMCOE,ON,N3Y 4N5,CANADA,42.8232671,-80.3121131
826660,40 WILSON AVE,SIMCOE COMPOSITE SCHOOL,,SIMCOE,ON,N3Y 2E5,CANADA,42.8415581,-80.3036978
826176,393 JAMES STREET,DELHI DISTRICT SECONDARY SCH,,DELHI,ON,N4B 2W9,CANADA,42.851465,-80.491845
826736,37 GLENDALE DRIVE,GLENDALE HIGH SCHOOL,,TILLSONBURG,ON,N4G 1J6,CANADA,42.8671791,-80.7417955
826530,POST OFFICE BOX 5100,LAMBTON CENTRAL COLL VOC INST,,PETROLIA,ON,N0N 1R0,CANADA,42.878351,-82.150127
826582,576 RIDGE ROAD BOX 310,RIDGEWAY-CRYSTAL BEACH HS,,RIDGEWAY,ON,L0S 1N0,CANADA,42.8851736,-79.0517222
826544,211 ELGIN ST.,PORT COLBORNE HIGH SCHOOL,,PORT COLBORNE,ON,L3K 2R8,CANADA,42.8886864,-79.2583879
826330,5250 WELLINGTON ROAD SOUTH,REGINA MUNDI COLLEGE,,LONDON,ON,N6E 3X8,CANADA,42.8944694,-81.2021613
826545,150 JANET ST,LAKESHORE CATHOLIC HIGH SCHOOL,,PRT COLBORNE,ON,L3K 2E7,CANADA,42.8962907,-79.2449115
826135,110 HELENA ST,DUNNVILLE SECONDARY SCHOOL,,DUNNVILLE,ON,N1A 2S5,CANADA,42.9057105,-79.6278946
826908,227 S MAIN ST,WATERFORD DISTRICT HIGH SCHOOL,,WATERFORD,ON,N0E 1Y0,CANADA,42.9287222,-80.2875387
826331,941 VISCOUNT RD,SAUNDERS SECONDARY SCHOOL,,LONDON,ON,N6K 1H5,CANADA,42.9459009,-81.2912811
826337,450 MILLBANK DR,SIR WILFRID LAURIER SEC SCHOOL,,LONDON,ON,N6C 4W7,CANADA,42.9469311,-81.2058103
821627,GABRIEL-DUMONT,ECOLE SECONDAIRE,920 RUE HURON,LONDON,ON,N5Y 4K4,CANADA,42.9514867,-81.1717084
826165,2619 NIAGARA PKY,NIAGARA CHRISTIAN COLLEGIATE,,FORT ERIE,ON,L2A 5M4,CANADA,42.9560055,-78.9770155
826192,PO BOX 669,HAGERSVILLE SECONDARY SCHOOL,,HAGERSVILLE,ON,N0A 1H0,CANADA,42.956878,-80.0437742
826340,230 BASELINE RD W,WESTMINSTER SECONDARY SCHOOL,,LONDON,ON,N6J 1W1,CANADA,42.9586356,-81.2772887
826084,BOX 2001,CAYUGA SECONDARY SCHOOL,,CAYUGA,ON,N0A 1E0,CANADA,42.9628841,-79.8617144
826616,340 MURPHY RD.,ST CLAIR SECONDARY SCHOOL,,SARNIA,ON,N7S 2X1,CANADA,42.966661,-82.366516
826621,340 MURPHY RD,GREAT LAKES SECONDARY SCHOOL,,SARNIA,ON,N7S 2X1,CANADA,42.966661,-82.366516
826325,1360 OXFORD STREET WEST,SAINT THOMAS AQUINAS CATH SS,,LONDON,ON,N6H 1W2,CANADA,42.9691006,-81.3349358
826322,371 TECUMSEH AVE,LONDON SOUTH COLLEGIATE INSTIT,,LONDON,ON,N6C 1T4,CANADA,42.9694017,-81.2431055
826194,70 JACQUELINE ST,THAMES VALLEY ALT SECONDARY SC,,LONDON,ON,N5Z 3P7,CANADA,42.9711489,-81.221223
826316,70 JACQUELINE STREET,G A WHEABLE CENTRE ADULT ED,,LONDON,ON,N5Z 3P7,CANADA,42.9711489,-81.221223
826321,24 BRAESYDE AVE.,LONDON DISTRICT CHRSTN SEC SCH,,LONDON,ON,N5W 1V3,CANADA,42.9751609,-81.1698907
826326,1040 OXFORD ST W,OAKRIDGE SECONDARY SCHOOL,,LONDON,ON,N6H 1V4,CANADA,42.9765758,-81.3137133
826692,361 SECOND ST,STRATHROY DIST COLLEGIATE INST,,STRATHROY,ON,N7G 4J8,CANADA,42.9814114,-81.6073397
826235,441 RIDOUT ST N,BLYTH ACADEMY LONDON,,LONDON,ON,N6A 2P6,CANADA,42.9836331,-81.2546987
826312,450 DUNDAS ST,CATHOLIC CENTRAL HIGH SCHOOL,,LONDON,ON,N6B 3K3,CANADA,42.9870502,-81.23921
826919,170 WELLINGTON ST.,WELLAND EASTDALE SCHOOL,,WELLAND,ON,L3B 1B3,CANADA,42.987066,-79.2236363
826318,525 DUNDAS ST,H B BEAL SECONDARY SCHOOL,,LONDON,ON,N6B 1W5,CANADA,42.9871095,-81.2345005
826146,61 QUEEN ST,LORD DORCHESTER SECONDARY SCH,,DORCHESTER,ON,N0L 1G2,CANADA,42.9873387,-81.0618524
826320,509 WATERLOO ST,LONDON CENTRAL SECONDARY SCH,,LONDON,ON,N6B 2P8,CANADA,42.9888087,-81.24482
826916,670 TANGUAY AVE.,ECOLE SECONDAIRE CONFEDERATION,,WELLAND,ON,L3B 6C3,CANADA,42.9888243,-79.223993
826711,1697 TRAFALGAR ST,AL-TAQWA SECONDARY SCHOOL,,LONDON,ON,N5W 1X2,CANADA,42.9891885,-81.1806202
826844,PO BOX 220,REHOBOTH CHRISTIAN SCHOOL,,NORWICH,ON,N0J 1P0,CANADA,42.9910525,-80.5917206
826623,901 PROMENADE RAPIDS,ES FRANCO JEUNESSE,,SARNIA,ON,N7S 6K2,CANADA,42.9932222,-82.3539529
826617,1001 THE RAPIDS PARKWAY,ST CHRISTOPHER SECONDARY SCH,,SARNIA,ON,N7S 6K2,CANADA,42.9950104,-82.3512669
826618,1001 THE RAPIDS PARKWAY,SAINT PATRICKS HIGH SCHOOL,,SARNIA,ON,N7S 6K2,CANADA,42.9950104,-82.3512669
826918,6727 CHIPPAWA RD S,ROBERT LAND ACADEMY,,WELLANDPORT,ON,L0R 2J0,CANADA,42.9961964,-79.5647626
826622,940 MICHIGAN AVE,NORTHERN COLL INST & VOC SCH,,SARNIA,ON,N7S 2B1,CANADA,42.999162,-82.37407
826315,300 CLARKE RD,CLARKE ROAD SECONDARY SCHOOL,,LONDON,ON,N5W 5N4,CANADA,42.9997,-81.1721
826917,64 SMITH STREET,NOTRE DAME COLLEGE SCHOOL,,WELLAND,ON,L3C 4H4,CANADA,43.0003974,-79.247128
826333,125 SHERWOOD FOREST SQUARE,SIR FREDERICK BANTING SEC SCH,,LONDON,ON,N6G 2C3,CANADA,43.0021399,-81.3050783
826921,240 THOROLD ROAD WEST,WELLAND CENTENNIAL SEC SCH,,WELLAND,ON,L3C 3W2,CANADA,43.0043908,-79.2670915
826319,1300 OXFORD STREET EAST,JOHN PAUL II HIGH SCHOOL,,LONDON,ON,N5V 4P7,CANADA,43.0103229,-81.2082704
826723,620 RIVER RD,ECOLE SECONDAIRE JEAN-VANIER,,WELLAND,ON,L3B 5N4,CANADA,43.0114089,-79.2331512
826328,1515 CHEAPSIDE ST,ROBARTS SCHOOL FOR THE DEAF,,LONDON,ON,N5V 3N9,CANADA,43.0124398,-81.2081511
826698,920 HURON STREET,ECOLE SECON MONSEIGNEW BRUYERE,,LONDON,ON,N5Y 4K4,CANADA,43.015623,-81.232715
826323,1350 HIGHBURY AVE N,MONTCALM SECONDARY SCHOOL,,LONDON,ON,N5Y 1B5,CANADA,43.0243854,81.2189414
826306,656 TENNENT AVE,A B LUCAS SECONDARY SCHOOL,,LONDON,ON,N5X 1L8,CANADA,43.0326154,-81.2470937
826161,350 HIGHWAY 20,E L CROSSLEY SECONDARY SCHOOL,,FONTHILL,ON,L0S 1E0,CANADA,43.0416121,-79.3168041
826233,37 ALMA ST,INGERSOLL DIST COLLEGIATE INST,,INGERSOLL,ON,N5C 1N1,CANADA,43.045399,-80.888458
826496,1065 SUNNINGDALE RD E,MOTHER TERESA CATHOLIC SEC SCH,,LONDON,ON,N5X 4B1,CANADA,43.048327,-81.2517283
826015,14405 MEDWAY RD,MEDWAY HIGH SCHOOL,,ARVA,ON,N0M 1C0,CANADA,43.051425,-81.289359
826075,91 HADDINGTON STREET,MCKINNON PARK SECONDARY SCHOOL,,CALEDONIA,ON,N3W 2H2,CANADA,43.0628891,-79.9529099
826384,8699 MCLEOD RD,SAINT MICHAEL HIGH SCHOOL,,NIAGARA FLS ONTA,ON,L2E 6S5,CANADA,43.0704415,-79.1427889
826380,5960 PITTON RD.,WESTLANE SECONDARY SCHOOL,,NIAGRA FALLS,ON,L2H 1T5,CANADA,43.087461,-79.130825
826378,5775 DRUMMOND ROAD,STAMFORD COLLEGIATE,,ST CATHERIN,ON,L2G 4L2,CANADA,43.0904411,-79.098534
826667,6488 SMITHVILLE ROAD,SMITHVILLE CHRISTIAN HIGH SCHL,,SMITHVILLE,ON,L0R 2A0,CANADA,43.090763,-79.555865
826163,15 19 GEORGE ST,NORTH LAMBTON SECONDARY SCHOOL,PO BOX 40,FOREST,ON,N0N 1J0,CANADA,43.0935907,-82.0023922
826012,4700 EPWORTH CIR,KENT SCHOOL CANADA,,NIAGARA FALLS,ON,L2E 1C6,CANADA,43.097681,-79.069909
826657,870 NIAGARA ST,CANADA PREP ACADEMY,,WELLAND,ON,L3C 1M3,CANADA,43.0987149,-79.0943101
826989,431 JULIANA DRIVE,ST MARYS HIGH SCHOOL,,WOODSTOCK,ON,N4V 1E8,CANADA,43.112981,-80.7495707
826995,430 JULIANNA DRIVE,ST MARY CATHOLIC HS,,WOODSTOCK,ON,N4V 1E8,CANADA,43.112981,-80.7495707
826377,3834 WINDERMERE RD,SAINT PAUL HIGH SCHOOL,,NIAGARA FLS,ON,L2J 2Y5,CANADA,43.11737,-79.109976
826216,RR 2,ASSUMPTION COLLEGE SCHOOL,257 SHELLARDS LANE,BRANTFORD,ON,N3T 0M7,CANADA,43.1214164,-80.2968284
826724,41 COLLIER ROAD SOUTH,MONSIGNOR CLANCY HIGH SCHOOL,,THOROLD,ON,L2V 3S9,CANADA,43.1218982,-79.2160923
826370,6338 O'NEIL ST,A N MYER SECONDARY SCHOOL,,NIAGARA FALLS,ON,L2J 1M7,CANADA,43.1223593,-79.10188
826986,700 COLLEGE AVE,COLLEGE AVENUE SECONDARY SCH,,WOODSTOCK,ON,N4S 2C8,CANADA,43.1242326,-80.7454828
826730,50 ORMOND ST. N.,THOROLD SECONDARY SCHOOL,,THOROLD,ON,L2V 1Z1,CANADA,43.1291667,-79.1985723
826990,35 RIDDELL ST,WOODSTOCK COLLEGIATE INSTITUTE,,WOODSTOCK,ON,N4S 6L9,CANADA,43.1313179,-80.7577223
826602,130 LOUTH STREET,WEST PARK SECONDARY SCHOOL,,ST CATHARINS,ON,L2S 2T4,CANADA,43.1382838,-79.2573587
826846,627 COLBORNE ST,PAULINE JOHNSON COLLEGIATE/VOC,,BRANTFORD,ON,N3S 3M8,CANADA,43.1392541,-80.2388727
826590,40 GLEN MORRIS DRIVE,DENIS MORRIS HIGH SCHOOL,,ST CATHARINS,ON,L2T 2M9,CANADA,43.1394238,-79.2366623
826988,900 CROMWELL ST,HURON PARK SECONDARY SCHOOL,,WOODSTOCK,ON,N4S 5B5,CANADA,43.1394955,-80.7387019
826600,101 GLEN MORRIS DR,SIR WINSTON CHURCHILL SECONDAR,,ST CATHARINS,ON,L2T 2N1,CANADA,43.140852,-79.2308741
826054,120 BRANT AVE,BRANTFORD COLLEGIATE INSTITUTE,,BRANTFORD,ON,N3T 3H3,CANADA,43.1425352,-80.2734233
826221,350 BRANT AVE,W. ROSS MACDONALD SCH FOR BLND,,BRANTFORD,ON,N3T 3J9,CANADA,43.1493005,-80.2826422
826106,2850 4TH AVENUE,HERITAGE CHRISTIAN SCHOOL,POST OFFICE BOX 400 JORDAN STA,BEAMSVILLE,ON,L0R 1S0,CANADA,43.150978,-79.3667748
826597,PO BOX 3013 STN MAIN,RIDLEY COLLEGE,,ST CATHARINES,ON,L2R 7C3,CANADA,43.1516514,-79.2572401
826508,PO BOX 610,NORTH MIDDLESEX DISTRICT HS,,PARKHILL,ON,N0M 2K0,CANADA,43.153832,-81.6855625
826062,80 PARIS RD,SAINT JOHNS COLLEGE,,BRANTFORD,ON,N3R 1H9,CANADA,43.1607429,-80.287368
826493,2016 HIGHWAY 127,WORD OF LIFE CHRISTIAN ACADEMY,PO BOX 132,LAKE ST PETER,ON,K0L 2K0,CANADA,43.1608948,-76.3318672
826030,4875 KING ST,GREAT LAKES CHRISTIAN COLLEGE,,BEAMSVILLE,ON,L0R 1B6,CANADA,43.1650835,-79.4695937
826598,34 CATHERINE STREET,SAINT CATHARINES COLL INST VOC,,ST CATHARINS,ON,L2R 5E7,CANADA,43.1668303,-79.2451722
826029,4317 CENTRAL AVE.,BEAMSVILLE DISTRICT HS,,BEAMSVILLE,ON,L0R 1B0,CANADA,43.1674568,-79.4740168
826057,280 NORTH PARK ST,NORTH PARK COLLEGIATE-VOC SCHL,,BRANTFORD,ON,N3R 4L1,CANADA,43.1689043,-80.2635633
826896,3373 FIRST AVE,NIAGARA ACADEMY,,VINELAND,ON,L0R 2E0,CANADA,43.179785,-79.3931106
826198,1824 RYMAL ROAD E,BISHOP RYAN CATHOLIC SEC SCH,,HANNON,ON,L0R 1P0,CANADA,43.1815084,-79.8161113
826593,349 NIAGARA ST,LAURA SECORD SECONDARY SCHOOL,,ST CATHARINES,ON,L2M 4V9,CANADA,43.1837627,-79.2266488
826678,108 HIGHLAND ROAD WEST,SALTFLEET DISTRICT HIGH SCHOOL,,STONEY CREEK,ON,L8J 2T2,CANADA,43.1838326,-79.7784723
826682,300 SCOTT ST,BEACON CHRISTIAN SECONDARY SCH,,ST CATHARINES,ON,L2N 1J3,CANADA,43.1858437,-79.2366417
826432,535 LAKE ST,EDEN HIGH SCHOOL,,ST CATHERINES,ON,L2N 4H7,CANADA,43.1911704,-79.2534486
826604,541 LAKE STREET,SAINT FRANCIS HIGH SCHOOL,,ST CATHARINS,ON,L2N 4H7,CANADA,43.1938521,-79.2531802
826187,5 BOULTON AVENUE,GRIMSBY SECONDARY SCHOOL,,GRIMSBY,ON,L3M 1H6,CANADA,43.1946065,-79.5701669
826264,145 LIVINGSTON AVE.,BLESSED TRINITY,,GRIMSBY,ON,L3M 5J6,CANADA,43.197054,-79.58045
827009,245 GARNER RD WEST,TAPPLY BINET COLLEGE,,ANCASTER,ON,L9G 3K9,CANADA,43.2002637,-79.994068
826202,200 ACADIA DR,SAINT JEAN DE BREBEUF CATH SS,,HAMILTON,ON,L8W 1B8,CANADA,43.200908,-79.8641859
826599,460 LINWELL RD,HOLY CROSS SECONDARY SCHOOL,,ST CATHERINES,ON,L2M 2P9,CANADA,43.2020339,-79.2169618
826996,100 PANABAKER DRIVE,BISHOP TONNOS CATHOLIC SEC SCH,,ANCASTER,ON,L9G 5E3,CANADA,43.202035,-79.995422
826596,15 GLENVIEW AVENUE,GOVERNOR SIMCOE SECONDARY SCH,,ST CATHARINS,ON,L2N 2Z7,CANADA,43.2024634,-79.2339567
826505,231 GRAND R STREET NORTH,PARIS DISTRICT HIGH SCHOOL,,PARIS,ON,N3L 2N6,CANADA,43.2036459,-80.3857452
826206,92 GLANCASTER RD.,HAMILTON DISTRICT CHRISTIAN HS,,ANCASTER,ON,L9G 3K9,CANADA,43.2073381,-79.9312931
826209,1045 UPPER PARADISE RD,SAINT THOMAS MORE CATHOLIC SEC,,HAMILTON,ON,L9B 2N4,CANADA,43.2136953,-79.9193025
821122,50 LISGAR CRT,ACAD CATHOLIQUE MERE TERESA,,HAMILTON,ON,L8T 4Y4,CANADA,43.2137114,-79.8280762
826197,75 PALMER ROAD,NORA FRANCES HENDERSON SEC SCH,,HAMILTON,ON,L8T 3G1,CANADA,43.2154335,-79.8410915
826011,374 JERSEYVILLE RD W,ANCASTER HIGH SCHOOL,,ANCASTER,ON,L9G 3K8,CANADA,43.216111,-80.0043566
826680,200 DEWITT ROAD,ORCHARD PARK SECONDARY SCHOOL,,STONEY CREEK,ON,L8E 4M5,CANADA,43.217602,-79.710582
826681,127 GRAY ROAD,CARDINAL NEWMAN CATHOLIC SECON,,STONEY CREEK,ON,L8G 3V3,CANADA,43.2220532,-79.745483
826205,145 RAINBOW DRIVE,GLENDALE SECONDARY SCHOOL,,HAMILTON,ON,L8K 4G1,CANADA,43.2256703,-79.7802708
826222,39 MONTCALM DRIVE,WESTMOUNT SECONDARY SCHOOL,,HAMILTON,ON,L9C 4B1,CANADA,43.226865,-79.8965892
826215,25 HIGH STREET,SHERWOOD SECONDARY SCHOOL,,HAMILTON,ON,L8T 3Z4,CANADA,43.2276038,-79.8230817
826208,465 EAST SIXTEENTH STREET,HILL PARK SECONDARY SCHOOL,,HAMILTON,ON,L9A 4K6,CANADA,43.2281237,-79.864616
826214,145 MAGNOLIA DR,SIR ALLAN MACNAB SECONDARY SCH,,HAMILTON,ON,L9C 5P4,CANADA,43.2314933,-79.9226618
826360,1875 NIAGARA STONE RD,VINERIDGE ACADEMY,,NIAGARA ON LAKE,ON,L0S 1J0,CANADA,43.2350904,-79.1051557
826219,1715 MAIN STREET EAST,SIR WINSTON CHURCHILL SEC SCH,,HAMILTON,ON,L8H 1E3,CANADA,43.2374379,-79.7958327
826207,299 FENNELL AVE W,HILLFIELD STRATHALLAN COLLEGE,,HAMILTON,ON,L9C 1G3,CANADA,43.2394713,-79.8950953
826203,1284 MAIN STREET EAST,DELTA SECONDARY SCHOOL,,HAMILTON,ON,L8K 1B2,CANADA,43.2404674,-79.8142061
826199,30 WENTWORTH N,CATHEDRAL HIGH SCHOOL,,HAMILTON,ON,L8L 8H5,CANADA,43.253486,-79.8480864
826211,200 WHITNEY AVE,ST MARY CATHOLIC SEC SCH,,HAMILTON,ON,L8S 2G7,CANADA,43.2536739,-79.927672
826200,1003 MAIN ST W,COLUMBIA INTERNATIONAL COLLEGE,,HAMILTON,ON,L8S 4P3,CANADA,43.258043,-79.906021
826213,28 REBECCA ST,SOUTHERN ONTARIO COLLEGIATE,,HAMILTON,ON,L8R 1B4,CANADA,43.2580686,-79.8673576
826132,310 GOVERNOR'S RD.,DUNDAS VALLEY SECONDARY SCHOOL,,DUNDAS,ON,L9H 5P8,CANADA,43.258114,-79.9759946
826603,POST OFFICE DRAWER 970,SAINT MARYS DIST COLL & V.I.,,SAINT MARYS,ON,N4X 1B6,CANADA,43.2590209,-81.1414968
826220,700 MAIN STREET WEST,WESTDALE SECONDARY SCHOOL,HAMILTON ON,HAMILTON,ON,L8S 1A5,CANADA,43.2598968,-79.9011354
826201,130 YORK BOULEVARD,SIR J A MACDONALD SECONDARY SC,,HAMILTON,ON,L8R 1Y5,CANADA,43.2609535,-79.8732104
826230,100 MACKLIN ST N,GEORGES P VANIER HIGH SCHOOL,,HAMILTON,ON,L8S 3S1,CANADA,43.266019,-79.89443
826070,50 FAIRWOOD PLACE WEST,ALDERSHOT SECONDARY SCHOOL,,BURLINGTON,ON,L7T 1E5,CANADA,43.3037102,-79.8524532
826920,422 21-14 PEARL ST UNIT,BLYTH ACADEMY BURLINGTON,,BURLINGTON,ON,L7R 2N1,CANADA,43.32656,-79.7955934
826071,1433 BALDWIN ST,BURLINGTON CENTRAL HIGH SCHOOL,,BURLINGTON,ON,L7S 1K4,CANADA,43.3292627,-79.8058164
826907,215 PARKSIDE DR,WATERDOWN DISTRICT HIGH SCHOOL,,WATERDOWN,ON,L0R 2H0,CANADA,43.3352604,-79.9102713
826310,185 MYERS ROAD,MONSIGNOR DOYLE CATH SEC SCH,,CAMBRIDGE,ON,N1R 7H2,CANADA,43.3409853,-80.298
826067,3250 NEW STREET,SELF-RELIANT LEARNING PROGRAM,,BURLINGTON,ON,L7N 1M8,CANADA,43.3429927,-79.7768266
826175,55 MCKAY ST.,GLENVIEW PARK HIGH SCHOOL,,CAMBRIDGE,ON,N1T 1M2,CANADA,43.3463241,-80.3069096
826068,3230 WOODWARD AVE,ASSUMPTION CATHOLIC SECND SCHL,,BURLINGTON,ON,L7N 3P1,CANADA,43.3485065,-79.7843913
826177,30 SOUTHWOOD DR,SOUTHWOOD SECONDARY SCHOOL,,CAMBRIDGE,ON,N1S 4K3,CANADA,43.349066,-80.336881
826155,92 GIDLEY ST.,SOUTH HURON DISTRICT HS,BOX 820,EXETER,ON,N0M 1S2,CANADA,43.3496243,-81.4777242
826998,81 HILL ST,KITCHENER/WATERLOO PRIVATE SCH,,EXETER,ON,N0M 1S1,CANADA,43.3546814,-81.4795646
826074,4181 NEW STREET,NELSON HIGH SCHOOL,,BURLINGTON,ON,L7L 1T3,CANADA,43.3582848,-79.7655134
826073,2425 UPPER MIDDLE RD,M M ROBINSON HIGH SCHOOL,,BURLINGTON,ON,L7P 3N9,CANADA,43.3639637,-79.8248717
826173,200 WATER STREET N,GALT COLLEGIATE INSTITUTE,,CAMBRIDGE,ON,N1R 6V2,CANADA,43.3690499,-80.318517
826690,60 ST ANDREW STREET,STRATFORD CENTRAL SECONDARY SC,,STRATFORD,ON,N5A 1A3,CANADA,43.3709391,-80.9873727
826061,5151 NEW STREET,ROBERT BATEMAN HIGH SCHOOL,,BURLINGTON,ON,L7L 1V3,CANADA,43.3715315,-79.7498115
826688,45 WATERLOO ST S,NANCY CAMPBELL COLLEGIATE,,STRATFORD,ON,N5A 4A8,CANADA,43.3719899,-80.9793799
826069,2333 HEADON FOREST DR,NOTRE DAME CATHOLIC SEC SCHOOL,,BURLINGTON,ON,L7M 3X6,CANADA,43.3779168,-79.8307662
826691,428 FORMAN AVE.,STRATFORD NORTHWESTERN SEC SCH,,STRATFORD,ON,N5A 6R7,CANADA,43.3851809,-80.9937051
826786,2483 BLEAMS RD,OUR LADY OF MOUNT CARMEL ACDMY,,NEW HAMBURG,ON,N3A 3J2,CANADA,43.385499,-80.6279467
826697,240 OAKDALE AVE,ST MICHAEL CATHOLIC SECONDARY,,STRATFORD,ON,N5A 7W2,CANADA,43.3863915,-80.9951496
826077,550 ROSE ST,PRESTON HIGH SCHOOL,,CAMBRIDGE,ON,N3H 2E6,CANADA,43.3908104,-80.365343
826082,50 SAGINAW PARKWAY,SAINT BENEDICT CATH SEC SCH,,CAMBRIDGE,ON,N1R 5W1,CANADA,43.3929749,-80.300535
826742,1825 STRASBURG RD,HURON HEIGHTS SECONDARY SCHOOL,,KITCHENER,ON,N2R 1S3,CANADA,43.394385,-80.4658099
826749,5150 UPPER MIDDLE RD,CORPUS CHRISTI,,BURLINGTON,ON,L7L 0E5,CANADA,43.3976748,-79.7847418
826912,3040 TIM DOBBIE DR,DR FRANK J HAYDEN SECONDARY,,BURLINGTON,ON,L7M 0N6,CANADA,43.3982338,-79.8188946
826021,1206 SNYDER'S ROAD WEST,WATERLOO-OXFORD DIST SEC S.S.,,BADEN,ON,N3A 1A4,CANADA,43.4010787,-80.6895537
826254,35 SPORTSWORLD CROSSING RD,VICTUS ACADEMY,,KITCHENER,ON,N2P 0A5,CANADA,43.4113506,-80.3963084
826079,400 HOLIDAY INN DRIVE,TEMPLE BAPTIST CHRISTIAN ACAD,,CAMBRIDGE,ON,N3C 3T1,CANADA,43.416836,-80.310852
826261,355 HOLIDAY INN DR,JACOB HESPELER SECONDARY SCH,,CAMBRIDGE,ON,N3C 1Z2,CANADA,43.4180047,-80.3163779
826400,1160 REBECCA ST.,THOMAS A BLAKELOCK HIGH SCHOOL,,OAKVILLE,ON,L6L 1Y9,CANADA,43.4198139,-79.6950389
826291,1500 BLOCK LINE ROAD,ST. MARY'S HIGH SCHOOL,,KITCHENER,ON,N2C 2S2,CANADA,43.4199373,-80.4670857
826668,PERE RENE DE GALINEE,ECOLE SECONDAIRE CATHOLIQUE,450 MAPLE GROVE RD,CAMBRIDGE,ON,N3H 4R7,CANADA,43.424596,-80.382062
826285,255 FISCHER-HALLMAN ROAD,FOREST HEIGHTS COLLEGIATE INST,,KITCHENER,ON,N2M 4X8,CANADA,43.4255213,-80.5224867
826396,540 LAKESHORE ROAD WEST,APPLEBY COLLEGE,,OAKVILLE,ON,L6K 3P1,CANADA,43.4268554,-79.6863233
826181,2820 WESTOAK TRAILS BLVD,GARTH WEBB SECONDARY SCHOOL,,OAKVILLE,ON,L6M 4W2,CANADA,43.4343563,-79.7545327
826397,124 DORVAL DR.,SAINT THOMAS AQUINAS SEC SCH,,OAKVILLE,ON,L6K 2W1,CANADA,43.4352625,-79.6808282
826288,110 DOON RD,ROCKWAY MENNONITE COLLEGIATE,,KITCHENER,ON,N2G 3C8,CANADA,43.435521,-80.464107
826685,1855 NOTRE DAME DR,CANADIAN INDEPENDENT COLLEGE,,ST AGATHA,ON,N0B 2L0,CANADA,43.4358974,-80.6293588
826403,1455 GLEN ABBEY GATE,ABBEY PARK HIGH SCHOOL,,OAKVILLE,ON,L6M 2G5,CANADA,43.4361873,-79.7359433
826570,146 TRAFALGAR AVE,STANFORD ACADEMY,,KITCHENER,ON,N2A 1Z7,CANADA,43.4394626,-80.4474364
826284,760 WEBER ST E,EASTWOOD COLLEGIATE INSTITUTE,,KITCHENER,ON,N2H 1H6,CANADA,43.439702,-80.4608988
826289,455 UNIVERSITY AVE W,RESURRECTION CATHOLIC SECND,,KITCHENER,ON,N2N 3B9,CANADA,43.4405344,-80.5468556
826283,301 CHARLES ST E,CAMERON HEIGHTS COLL INST,,KITCHENER,ON,N2G 2P8,CANADA,43.4445162,-80.4818386
826398,1550 NOTTINGHILL GATE,SAINT IGNATIUS LOYOLA HS,,OAKVILLE,ON,L6M 1X7,CANADA,43.4446942,-79.7335265
826252,260 KING ST W STE 201,BLYTH ACADEMY WATERLOO,,KITCHENER,ON,N2G 1B6,CANADA,43.4516353,-80.493676
826538,337 TRAFALGAR RD,MACLACHLAN COLLEGE,,OAKVILLE,ON,L6J 3H3,CANADA,43.4526343,-79.6754255
826286,787 KING ST W,KITCHENER-WATERLOO COLL/VOC SC,,KITCHENER,ON,N2G 1E3,CANADA,43.455668,-80.509026
826287,175 INDIAN RD.,GRAND RIVER COLLEGIATE INST,,KITCHENER,ON,N2B 2S7,CANADA,43.457436,-80.4365516
826401,1330 MONTCLAIR DR,WHITE OAKS SECONDARY SCHOOL,,OAKVILLE,ON,L6H 1Z5,CANADA,43.4634373,-79.7018166
826867,1080 LINBROOK RD,SAINT MILDREDS LIGHTBOURN SCHL,,OAKVILLE,ON,L6J 2L1,CANADA,43.4642238,-79.6670126
826993,650 LAURELWOOD DR,SIR JOHN A MACDONALD SEC SCH,,WATERLOO,ON,N2V 2V1,CANADA,43.4711461,-80.5945486
826399,1460 DEVON RD,OAKVILLE TRAFALGAR HIGH SCHOOL,,OAKVILLE,ON,L6J 3L6,CANADA,43.4723402,-79.6542454
826474,2420 SIXTH LINE,HOLY TRINITY CATHOLIC SECND,,OAKVILLE,ON,L6H 5Z8,CANADA,43.4723923,-79.7241118
826365,95 FRANCES ST RR 5,MITCHELL DISTRICT HIGH SCHOOL,,MITCHELL,ON,N0K 1N0,CANADA,43.473804,-81.1918294
826911,80 BLUEVALE ST N,BLUEVALE COLLEGIATE INSTITUTE,,WATERLOO,ON,N2J 3R5,CANADA,43.4751942,-80.5000231
826684,1484 CORNWALL RD,CHISHOLM ACADEMY,,OAKVILLE,ON,L6J 7W5,CANADA,43.4773604,-79.6595537
826517,528 BURNHAMTHORPE RD W,KINGS CHRISTIAN COLLEGIATE,,OAKVILLE,ON,L6M 4K6,CANADA,43.478836,-79.761573
826910,300 HAZEL ST,WATERLOO COLLEGIATE INSTITUTE,,WATERLOO,ON,N2L 3P2,CANADA,43.479474,-80.530252
826905,4 HIGH STREET,SAINT DAVID CATH SECONDARY SCH,,WATERLOO,ON,N2L 3X5,CANADA,43.484228,-80.5294301
826904,1145 BRONTE ST S,JEAN VANIER CATHOLIC SECONDARY,,MILTON,ON,L9T 8B4,CANADA,43.4869028,-79.8579473
826429,1123 GLENASHTON DRIVE,IROQUOIS RIDGE HIGH SCHOOL,,OAKVILLE,ON,L6H 5M1,CANADA,43.4888179,-79.6990913
826060,RURAL ROUTE 1,WOODLAND CHRISTIAN HIGH SCHOOL,,BRESLAU,ON,N0B 1M0,CANADA,43.492866,-80.4165995
826514,200 CLAIR ROAD W,BISHOP MACDONELL CATHOLIC HS,,GUELPH ONTARIO,ON,N1L 1G1,CANADA,43.4944726,-80.1953889
825799,BOX 124,GUIDING LIGHT CHRISTIAN ACAD,,SHAG HARBOUR,NS,B0W 3B0,CANADA,43.4948531,-65.7105696
826072,2524 BROMSGROVE ROAD,CLARKSON SECONDARY SCHOOL,,MISSISSAUGA,ON,L5J 1L8,CANADA,43.5039692,-79.6457985
826356,396 WILLIAMS AVE,MILTON DISTRICT HIGH SCHOOL,,MILTON,ON,L9T 2G4,CANADA,43.5061943,-79.8710721
826909,2201 SHANTZ STATION RD,SAINT JOHNS-KILMARNOCK SCHOOL,,BRESLAU,ON,N0B 1M0,CANADA,43.5105534,-80.3829088
826448,255 ONTARIO ST SOUTH,ERNEST C DRURY SCH FOR DEAF,,MILTON,ON,L9T 2M5,CANADA,43.5144437,-79.8698468
826854,1151 FERGUSON DR,CRAIG KIELBURGER SECONDARY SCH,,MILTON,ON,L9T 7V8,CANADA,43.5144805,-79.8274505
826671,2170 S SHERIDAN WY,IONA CATHOLIC SECONDARY SCHOOL,,MISSISSAUGA,ON,L5J 2M4,CANADA,43.520766,-79.6476405
826281,289 COLLEGE AVENUE WEST,CENTENNIAL COLLEGIATE VOC INST,,GUELPH,ON,N1G 1S9,CANADA,43.5215631,-80.2481791
826573,204 - 3105 DUNDAS ST W,JAYA INTERNATIONAL HIGH SCHOOL,,MISSISSAUGA,ON,L5L 3R8,CANADA,43.5220306,-79.6852075
826358,4010 SLADEVIEW CRES,LOYOLA CATHOLIC SECONDARY SCH,,MISSISSAUGA,ON,L5L 6B1,CANADA,43.5266531,-79.7129492
826327,1120 MAIN ST E,BISHOP REDING SECONDARY SCHOOL,,MILTON,ON,L9T 6H7,CANADA,43.5309694,-79.8632585
826549,1324 LORNE PARK RD,LORNE PARK SECONDARY SCHOOL,,MISSISSAUGA,ON,L5H 3B1,CANADA,43.5313362,-79.624542
826494,1-2155 DUNWIN DR,ELPIS COLLEGE-MISSISSAUGA,,MISSISSAUGA,ON,L5L 4M1,CANADA,43.5345566,-79.6710325
826101,2021 DUNDAS STREET WEST,ERINDALE SECONDARY SCHOOL,,MISSISSAUGA,ON,L5K 1R2,CANADA,43.5389376,-79.6665244
827001,2241 MISSISSAUGA RD,HOLY NAME MARY COLLEGE SCHOOL,,MISSISSAUGA,ON,L5H 2K8,CANADA,43.5420648,-79.6380539
826189,155 PAISLEY ST,GUELPH COLLEGIATE VOC INST,,GUELPH,ON,N1H 2P3,CANADA,43.5426623,-80.2598665
826825,1576 DUNDAS ST W,ERINDALE ACADEMY,,MISSISSAUGA,ON,L5C 1E5,CANADA,43.5453657,-79.6531309
826193,54 WESTMOUNT RD,OUR LADY LOURDES HIGH SCHOOL,,GUELPH,ON,N1H 5H7,CANADA,43.5476288,-80.2682279
825979,2495 CREDIT VALLEY RD,ARCHBISHOP ROMERO CATH SEC SCH,,MISSISSAUGA,ON,L5M 4G8,CANADA,43.5511142,-79.7090405
821208,3801 THOMAS ST,ST JOAN OF ARC CATHOLIC SEC,,MISSISSAUGA,ON,L5M 7G2,CANADA,43.553215,-79.7465882
826479,2800 ERIN CENTRE BLVD,ST ALOYSIUS GONZAGA SEC SCHOOL,,MISSISSAUGA,ON,L5M 6R5,CANADA,43.5564811,-79.7181446
827124,3675 THOMAS ST,STEPHEN LEWIS SECONDARY SCHOOL,,MISSISSAUGA,ON,L5M 7E6,CANADA,43.5571003,-79.7433641
826379,2470 ROSEMARY DRIVE,ST MARTINS SECONDARY SCHOOL,,MISSISSAUGA,ON,L5C 1X2,CANADA,43.5571344,-79.6367619
826342,2665 ERIN CENTRE BLVD,JOHN FRASER SECONDARY SCHOOL,,MISSISSAUGA,ON,L5M 5H6,CANADA,43.5601414,-79.7165493
826185,57 VICTORIA ROAD NORTH,SAINT JAMES HIGH SCHOOL,,GUELPH,ON,N1E 5G9,CANADA,43.5602061,-80.2328736
826190,21 MEYER DRIVE,J F ROSS COLLEGIATE VOC INST,,GUELPH,ON,N1E 4H1,CANADA,43.5614365,-80.2466244
826375,40 FOREST AVE,MENTOR COLLEGE,,MISSISSAUGA,ON,L5G 1L1,CANADA,43.5615826,-79.5801151
826744,850 ENOLA AVE,BLYTH ACADEMY-MISSISSAUGA,,MISSISSAUGA,ON,L5G 4B2,CANADA,43.5619668,-79.5679345
826550,70 MINEOLA ROAD EAST,PORT CREDIT SECONDARY SCHOOL,,MISSISSAUGA,ON,L5G 2E5,CANADA,43.5626118,-79.5883373
826372,3225 ERINDALE STATION RD,WOODLANDS SCHOOL THE,,MISSISSAUGA,ON,L5C 1Y5,CANADA,43.5628759,-79.6477963
821829,1140 BURNHAMTHORPE RD W,TORONTO INTERNATIONAL ACADEMY,,MISSISSAUGA,ON,L5C 4E9,CANADA,43.5690144,-79.6617412
826455,88 BRONTE COLLEGE CRT,BRONTE COLLEGE OF CANADA,,MISSISSAUGA,ON,L5B 1M9,CANADA,43.5705153,-79.6059333
826381,3700 TRELAWNY CIRCLE,OUR LADY OF MOUNT CARMEL,,MISSISSAUGA,ON,L5N 5J7,CANADA,43.5747917,-79.7725827
826373,1305 CAWTHRA RD,CAWTHRA PARK SECONDARY SCHOOL,,MISSISSAUGA,ON,L5G 4L1,CANADA,43.5763613,-79.5734938
826387,815 ATWATER AVENUE,SAINT PAULS SECONDARY SCHOOL,,MISSISSAUGA,ON,L5E 1L8,CANADA,43.5772561,-79.5713738
826355,6700 EDENWOOD DR,MEADOWVALE SECONDARY SCHOOL,,MISSISSAUGA,ON,L5N 3B2,CANADA,43.5779349,-79.7613864
826838,STE 201,BEACON HOUSE INTERNATIONAL COL,3050 CONFEDERATION PKWY,MISSISSAUGA,ON,L5B 3Z6,CANADA,43.5779732,-79.6214787
826693,72 JOYMAR DR,STREETSVILLE SECONDARY SCHOOL,,MISSISSAUGA,ON,L5M 1G3,CANADA,43.5796875,-79.7195284
825100,BOX 40,BARRINGTON MUNICIPAL HS,,BARRINGTON PASS,NS,B0W 1G0,CANADA,43.580285,-65.6158295
826107,3100 HURONTARIO STREET,T L KENNEDY SECONDARY SCHOOL,,MISSISSAUGA,ON,L5B 1N7,CANADA,43.5819102,-79.6192452
826547,330 CENTRAL PARKWAY WEST,FATHER MICHAEL GOETZ SEC SCH,,MISSISSAUGA,ON,L5B 3K6,CANADA,43.582098,-79.6362259
826546,1490 OGDEN AVENUE,G GRAYDON MEMORIAL SEC SCHOOL,,MISSISSAUGA,ON,L5E 2H8,CANADA,43.5857684,-79.5724542
826468,100 ELM DRIVE WEST,CENTRE FOR EDUCATION,,MISSISSAUGA,ON,L5B 1L9,CANADA,43.5879176,-79.6330198
826463,1150 DREAM CREST RD,RICK HANSEN SECONDARY SCHOOL,,MISSISSAUGA,ON,L5V 1N6,CANADA,43.5885904,-79.6837785
826439,5555 CREDITVIEW RD.,SAINT JOSEPH SECONDARY SCHOOL,,MISSISSAUGA,ON,L5V 2B9,CANADA,43.5898304,-79.6998445
826143,4 UNIVERSITY AVENUE,ELMIRA DISTRICT SECONDARY SCH,,ELMIRA,ON,N3B 1K2,CANADA,43.5937954,-80.5617534
826152,28 COLONEL SAMUEL SMITH PARK,FATHER JOHN REDMOND CATH HS,,TORONTO,ON,M8V 4B7,CANADA,43.5948601,-79.5167212
826794,6341 MISSISSAUGA RD,PHILOPATEER CHRISTIAN COLLEGE,,MISSISSAUGA,ON,L5N 1A5,CANADA,43.5953099,-79.7304333
826835,350 KIPLING AVE,LAKESHORE COLLEGIATE INSTITUTE,,ETOBICOKE,ON,M8V 3L1,CANADA,43.6014073,-79.5190831
826112,945 BLOOR STREET EAST,APPLEWOOD HEIGHTS SEC SCHOOL,,MISSISSAUGA,ON,L4Y 2M8,CANADA,43.6069186,-79.604745
826469,635 WILLOWBANK TRAIL,JOHN CABOT CATHOLIC SEC SCHOOL,,MISSISSAUGA,ON,L4W 3L6,CANADA,43.6127944,-79.6204599
826350,50 BRISTOL RD. W.,SAINT FRANCIS XAVIER SEC SCH,,MISSISSAUGA,ON,L5R 3K3,CANADA,43.6129906,-79.6646197
826820,PO BOX 490,ST ANNES CATHOLIC SECONDARY SC,,CLINTON,ON,N0M 1L0,CANADA,43.613876,-81.528408
826548,1780 MEADOWVALE BLVD.,ECOLE SECONDAIRE CATHOLIQUE,,MISSISSAUGA,ON,L5N 7K8,CANADA,43.6145052,-79.7466107
826095,165 PRINCESS ST E,CENTRAL HURON SECONDARY SCHOOL,,CLINTON,ON,N0M 1L0,CANADA,43.617465,-81.5329469
826339,1536 THE QUEENSWAY,QUEENSWAY CHRISTIAN COLLEGE,,TORONTO,ON,M8Z 1T5,CANADA,43.6189386,-79.5373735
826809,20 QUEEN ELIZABETH BOULEVARD,IMPERIAL COLLEGE OF TORONTO,,TORONTO,ON,M8Z 1L8,CANADA,43.6228336,-79.5042818
828439,730 COURTNEYPARK DR W,ST MARCELLINUS SECONDARY SCH,,MISSISSAUGA,ON,L5W 1L9,CANADA,43.6237335,-79.7101146
826390,4555 TOMKEN RD,PHILIP POCOCK CATH SEC SCHOOL,,MISSISSAUGA,ON,L4W 1J9,CANADA,43.6251025,-79.626165
826563,550 COURTNEYPARK DR W,MISSISSAUGA SECONDARY SCHOOL,,MISSISSAUGA,ON,L5W 1L9,CANADA,43.6253052,-79.7036591
826369,3575 FIELDGATE DRIVE,GLENFOREST SECONDARY SCHOOL,,MISSISSAUGA,ON,L4X 2J6,CANADA,43.6269947,-79.5929257
826796,675 ROYAL YORK ROAD,ETOBICOKE SCHOOL OF THE ARTS,,ETOBICOKE,ON,M8Y 2T1,CANADA,43.630802,-79.5039342
826231,721 ROYAL YORK ROAD,BISHOP ALLEN ACADEMY,,ETOBICOKE,ON,M8Y 2T3,CANADA,43.63419,-79.5049308
826935,5889 COOPERS AVE,DEWEY COLLEGE,,MISSISSAUGA,ON,L4Z 1R9,CANADA,43.635499,-79.6632609
826773,635 QUEENS QUAY W.,CITY SCHOOL,,TORONTO,ON,M5V 3G3,CANADA,43.6362375,-79.3972209
826153,291 MILL RD,SILVERTHORN COLLEGIATE INST,,ETOBICOKE,ON,M9C 1Y5,CANADA,43.6379231,-79.5802096
826845,209 JAMESON AVENUE,PARKDALE COLLEGIATE INSTITUTE,,TORONTO,ON,M6K 2Y3,CANADA,43.6396663,-79.4360715
826001,21 CEDAR ROAD,ACTON DISTRICT HIGH SCHOOL,,ACTON,ON,L7J 2V2,CANADA,43.642566,-80.033501
826172,2489 BLOOR ST W,BLYTH ACADEMY - ETOBICOKE,,TORONTO,ON,M6S 1R6,CANADA,43.6478897,-79.4862383
826237,500 THE EAST MALL,BURNHAMTHORPE COLLEGIATE INST,,ETOBICOKE,ON,M9B 2C4,CANADA,43.6494122,-79.5614801
826238,86 MONTGOMERY RD,ETOBICOKE COLLEGIATE INSTITUTE,,ETOBICOKE,ON,M9A 3N5,CANADA,43.6500719,-79.5227562
826180,70 GUELPH ST,GEORGETOWN DISTRICT HIGH SCH,,GEORGETOWN,ON,L7G 3Z5,CANADA,43.6502946,-79.9208365
826906,300-17 TORONTO ST,NEWTON INTERNATIONAL COLLEGE,,TORONTO,ON,M5C 2R1,CANADA,43.6503693,-79.3761224
826966,23 TORONTO ST,KEYSTONE TORONTO INTRNTL HS,,TORONTO,ON,M5C 2R1,CANADA,43.6504805,-79.3761366
826712,5535 EGLINTON AVE W UNIT 214,QUEENS COLLEGIATE,,TORONTO,ON,M9C 5K5,CANADA,43.6507264,-79.6019122
826499,161 GUELPH STREET,CHRIST THE KING CATHOLIC SEC S,,GEORGETOWN,ON,L7G 4A6,CANADA,43.6510147,-79.9097307
826827,330 LANSDOWNE AVE,ECOLE SECONDAIRE TORONTO OUEST,,TORONTO,ON,M6H 3Y1,CANADA,43.6525409,-79.4409854
826811,19 SACKVILLE ST,INGLENOOK COMMUNITY HIGH SCHL,,TORONTO,ON,M5A 3E1,CANADA,43.653944,-79.3594095
826863,67 BOND ST.,SAINT MICHAELS CHOIR SCHOOL,,TORONTO,ON,M5B 1X2,CANADA,43.6553658,-79.3776423
826770,177 BEVERLEY ST,CORNERSTONE PREPARATORY SCHOOL,,TORONTO,ON,M5T 1Y7,CANADA,43.65542,-79.39429
826870,64 BALDWIN STREET,SUBWAY ACADEMY TWO,,TORONTO,ON,M5T 1L4,CANADA,43.6557738,-79.3957083
826755,1515 BLOOR ST W,BISHOP MAROCCO THOMAS MERTON,,TORONTO,ON,M6P 1A3,CANADA,43.6561083,-79.4520945
826880,146 GLENDONWYNNE RD,URSULA FRANKLIN ACADEMY,,TORONTO,ON,M6P 3E3,CANADA,43.656544,-79.4744808
826883,125 EVELYN CRESCENT,WESTERN TECH COMMERCIAL SCHOOL,,TORONTO,ON,M6P 3E3,CANADA,43.6570591,-79.475238
826772,570 SHAW ST,CENTRAL TORONTO ACADEMY,,TORONTO,ON,M6G 3L6,CANADA,43.657743,-79.42164
826262,27 DRINKWATER ROAD,SAINT AUGUSTINE SECONDARY SCH,,BRAMPTON,ON,L6V 4T6,CANADA,43.658388,-79.7650458
826758,1141 BLOOR ST WEST,BLOOR COLLEGIATE INSTITUTE,,TORONTO,ON,M6H 1M9,CANADA,43.6592415,-79.437146
826243,105 ERINGATE DRIVE,MICHAEL POWER/ST JOSEPH HS,,ETOBICOKE,ON,M9C 3Z7,CANADA,43.6593463,-79.5821184
826808,280 QUEBEC AVENUE,HUMBERSIDE COLLEGIATE INST,,TORONTO,ON,M6P 2V3,CANADA,43.6599513,-79.4706461
826802,286 HARBORD STREET,HARBORD COLLEGIATE INSTITUTE,,TORONTO,ON,M6G 1G5,CANADA,43.6612094,-79.4142973
826876,292-296 PARLIAMENT ST.,TAIE INTERNATIONAL INSTITUTE,,TORONTO,ON,M5A 3A4,CANADA,43.6617053,-79.3791114
826791,100 CARLTON ST,LE COLLEGE FRANCAIS,,TORONTO,ON,M5B 1M3,CANADA,43.662428,-79.377583
826855,569 JANE STREET,RUNNYMEDE COLLEGIATE INSTITUTE,,TORONTO,ON,M6S 4A3,CANADA,43.663154,-79.4897269
826774,725 BATHURST ST,CENTRAL TECHNICAL SCHOOL,,TORONTO,ON,M5S 2R5,CANADA,43.6638206,-79.4089899
826831,400 JARVIS ST,CANADA'S NATIONAL BALLET SCH,,TORONTO,ON,M4Y 2G6,CANADA,43.6639659,-79.3779104
826801,323 KEELE STREET,GREAT LAKES COLLEGE OF TORONTO,,TORONTO,ON,M6P 2K6,CANADA,43.664039,-79.463745
826859,74 WELLESLEY STREET WEST,SAINT JOSEPHS COLLEGE SCHOOL,,TORONTO,ON,M5S 1C4,CANADA,43.6642249,-79.3885907
826810,495 JARVIS STREET,JARVIS COLLEGIATE INSTITUTE,,TORONTO,ON,M4Y 2G8,CANADA,43.6658765,-79.3776125
826877,371 BLOOR ST W,UNIVERSITY OF TORONTO SCHOOLS,,TORONTO,ON,M5S 2R7,CANADA,43.6667366,-79.4022381
826051,251 MCMURCHY AVENUE SOUTH,BRAMPTON CENTENNIAL SEC SCHOOL,,BRAMPTON,ON,L6Y 1Z4,CANADA,43.6667891,-79.7482233
826757,557 CHURCH ST 4TH FLOOR,ABELARD SCHOOL,,TORONTO,ON,M4Y 2E2,CANADA,43.667231,-79.381255
826937,7580 KENNEDY RD,WALI UL ASR LEARNING INSTITUTE,,BRAMPTON,ON,L6W 0A1,CANADA,43.6673997,-79.7115968
826969,500 ELBERN MARKELL DR,JEAN AUGUSTINE SECONDARY SCHL,,BRAMPTON,ON,L6X 5L3,CANADA,43.6679015,-79.8265634
826761,85 ST NICHOLAS ST,BLYTH ACADEMY YORKVILLE,,TORONTO,ON,M4Y 1W8,CANADA,43.6682567,-79.3868702
826783,35 PRINCE ARTHUR AVE,"DRAGON ACADEMY, THE           ",,TORONTO ONTARIO,ON,M5R 1B2,CANADA,43.6691794,-79.3970247
826903,45 DAVISELM DR,DAVID SUZUKI SECONDARY SCHOOL,,BRAMPTON,ON,L6X 0Z3,CANADA,43.669333,-79.7865412
826858,120 HOWLAND AVENUE,ROYAL ST GEORGES COLLEGE,,TORONTO,ON,M5R 3B5,CANADA,43.6693777,-79.410477
826851,1094 GERRARD STREET EAST,RIVERDALE COLLEGIATE INSTITUTE,,TORONTO,ON,M4M 2A1,CANADA,43.6696814,-79.3355707
826792,200 VALLEYWAY DR,SAINT ROCH CATHOLIC SECONDARY,,BRAMPTON,ON,L6X 0N3,CANADA,43.6720551,-79.8061672
826239,50 WINTERTON DR.,MARTINGROVE COLLEGIATE INST,,ETOBICOKE,ON,M9B 3G7,CANADA,43.673118,-79.5608091
821380,711 BLOOR ST EAST,ROSEDALE HEIGHTS SCHOOL-ARTS,,TORONTO,ON,M4W 1J4,CANADA,43.67381,-79.3658559
826765,10 ELM AVE,BRANKSOME HALL SCHOOL,,TORONTO,ON,M4W 1N4,CANADA,43.6751328,-79.3800807
826361,7935 KENNEDY ROAD SOUTH,TURNER FENTON SECONDARY SCHOOL,RURAL ROUTE 10,BRAMPTON,ON,L6W 0A2,CANADA,43.6751901,-79.7183973
826824,1 DANFORTH AVE,CITY ADULT LEARNING CENTRE,,TORONTO,ON,M4K 1M8,CANADA,43.6754514,-79.3604159
826817,151 ROSEMOUNT AVE,LORETTO COLLEGE SCHOOL,,TORONTO,ON,M6H 2N1,CANADA,43.6759651,-79.4432802
826866,49 FELSTEAD AVE,ST PATRICK CATHOLIC SECND SCHL,,TORONTO,ON,M4J 1G3,CANADA,43.6781133,-79.3281601
826242,1738 ISLINGTON AVENUE,RICHVIEW COLLEGIATE INSTITUTE,,ETOBICOKE,ON,M9A 3N2,CANADA,43.678683,-79.539443
826843,991 ST. CLAIR AVE. W.,OAKWOOD COLLEGIATE INSTITUTE,,TORONTO,ON,M6E 1A3,CANADA,43.6790144,-79.436162
826884,16 PHIN AVE,SUBWAY ACADEMY I,,TORONTO,ON,M4J 3T2,CANADA,43.6791223,-79.3365222
826829,1 HANSON ST,MONARCH PARK COLLEGIATE,,TORONTO,ON,M4J 1G6,CANADA,43.6792448,-79.3234784
821389,24 MOUNTJAY AVE,SCHOOL OF LIFE EXPERIENCE,,TORONTO,ON,M4J 1J6,CANADA,43.6793402,-79.3227427
826833,127 VICTORIA PARK AVENUE,NEIL MCNEIL HIGH SCHOOL,,TORONTO,ON,M9B 1G1,CANADA,43.6794041,-79.2829612
821376,21 ASCOT AVE,HUDSON COLLEGE,,TORONTO,ON,M6E 1E6,CANADA,43.679861,-79.4442192
826753,99 HUMBER BLVD,ST OSCAR ROMERO CATH SECND SCH,,TORONTO,ON,M6N 2H4,CANADA,43.6804315,-79.4811471
826841,12 MALVERN AVENUE,NOTRE DAME CATH SEC SCHOOL,,TORONTO,ON,M4E 3E1,CANADA,43.6810282,-79.2932649
826778,131 FARNHAM AVENUE,DE LA SALLE COLLEGE,,TORONTO,ON,M4V 1H7,CANADA,43.6822499,-79.3983989
826776,800 GREENWOOD AVE,DANFORTH COLLEGIATE AND TECH S,,TORONTO,ON,M4J 4B7,CANADA,43.6822643,-79.3336023
826822,55 MALVERN AVE,MALVERN COLLEGIATE INSTITUTE,,TORONTO,ON,M4E 3E4,CANADA,43.6827978,-79.2932404
826147,75 MARY ST,CARDINAL LEGER SECONDARY SCH,,BRAMPTON,ON,L6W 3K5,CANADA,43.6840635,-79.7511893
826885,1320 YONGE ST,YORK SCHOOL,,TORONTO,ON,M4T 1X2,CANADA,43.6846194,-79.3928635
826865,1515 BATHURST ST,SAINT MICHAELS COLLEGE SCHOOL,,TORONTO,ON,M5P 3H4,CANADA,43.6846411,-79.4180107
826800,1700 KEELE STREET,GEORGE HARVEY COLLEGIATE INST,,TORONTO,ON,M6M 3W5,CANADA,43.684878,-79.4732071
826926,380 THE WESTWAY,KIPLING COLLEGIATE INSTITUTE,,WESTON,ON,M9R 1H4,CANADA,43.685283,-79.5623007
826818,10 ROSEHILL AVENUE,LINDEN SCHOOL THE,,TORONTO,ON,M4T 1G5,CANADA,43.6864996,-79.3927214
826887,15 TREHORNE DR,YORK MEMORIAL COLLEGIATE INST,,ETOBICOKE,ON,M9P 1N8,CANADA,43.6897554,-79.5311855
826930,15 TREHORNE DRIVE,SCARLETT HEIGHTS ENTREPRENEURI,,WESTON,ON,M9P 1N8,CANADA,43.6897554,-79.5311855
826756,298 LONSDALE RD,BISHOP STRACHAN SCHOOL,,TORONTO,ON,M4V 1X2,CANADA,43.6899679,-79.4090323
826879,200 LONSDALE RD,UPPER CANADA COLLEGE,,TORONTO,ON,M4V 1W6,CANADA,43.6933068,-79.4037458
826819,2327 DUFFERIN ST,LYCEE FRANCAIS DE TORONTO,,TORONTO,ON,M6E 3S5,CANADA,43.6936332,-79.4488398
825983,275 BRISDALE DR,ST EDMUND CAMPION SEC SCHOOL,,BRAMPTON,ON,L7A 3C7,CANADA,43.694152,-79.8299934
826788,650 COSBURN AVENUE,EAST YORK COLLEGIATE INSTITUTE,,TORONTO,ON,M4C 2V2,CANADA,43.6948087,-79.3278337
826637,3663 DANFORTH AVENUE,BIRCHMOUNT PARK COLL INSTITUTE,,SCARBOROUGH,ON,M1N 2G2,CANADA,43.6977377,-79.25967
826058,32 KENNEDY RD N,CENTRAL PEEL SECONDARY SCHOOL,,BRAMPTON,ON,L6V 1X4,CANADA,43.6982204,-79.7512863
826803,115-1910 YONGE ST,CITY ACADEMY,,TORONTO,ON,M4S 3B2,CANADA,43.6984704,-79.3971408
826799,443 MOUNT PLEASANT RD,GREENWOOD COLLEGE SCHOOL,,TORONTO,ON,M4S 2L8,CANADA,43.700202,-79.386531
826541,10750 CHINGUACOUSY RD,FLETCHERS MEADOW SECONDARY SCH,,BRAMPTON,ON,L7A 2Z7,CANADA,43.7006298,-79.8289997
826625,200-250 DAVISVILLE AVE,TORONTO PREP SCHOOL,,TORONTO,ON,M4S 1H2,CANADA,43.7009025,-79.3864741
826663,300-2040 YONGE ST,STUDY ACADEMY - UPPER SCHOOL,,TORONTO,ON,M4S 1Z9,CANADA,43.7012132,-79.3974985
826798,730 EGLINTON AVE WEST,FOREST HILL COLLEGIATE INST,,TORONTO,ON,M5N 1B9,CANADA,43.7028759,-79.4214723
826158,905 SCOTLAND ST,CENTRE WELLINGTON DIST HS,,FERGUS,ON,N1M 1Y7,CANADA,43.7035702,-80.3584443
826933,100 PINE STREET,WESTON COLLEGIATE INSTITUTE,,WESTON,ON,M9N 2Y9,CANADA,43.7038742,-79.5093967
826982,708-36 EGLINTON AVE W,HANSON INTERNATIONAL ACADEMY,,TORONTO,ON,M4R 1A1,CANADA,43.7066579,-79.3999856
826335,55 EGLINTON AVE E UNIT 808,ONTARIO ACADEMY OF TECHNOLOGY,,TORONTO,ON,M4P 1G8,CANADA,43.7068418,-79.3959794
826830,1107 AVENUE ROAD,MARSHALL MCLUHAN CATHOLIC SEC,,TORONTO,ON,M5N 3B1,CANADA,43.7071094,-79.4097703
826750,201-150 EGLINTON AVE E,URBAN INTERNATIONAL HIGH SCHL,,TORONTO,ON,M4P 1E8,CANADA,43.7078904,-79.3940215
826131,135 OVERLEA BLVD,MARC GARNEAU COLLEGIATE INST,,TORONTO,ON,M3C 1B3,CANADA,43.7092251,-79.3354171
826839,17 BROADWAY AVE,NORTH TORONTO COLLEGIATE INST,,TORONTO,ON,M4P 1T7,CANADA,43.7098648,-79.3966319
826775,490 QUEENS DRIVE,CHAMINADE COLLEGE SCHOOL,,TORONTO,ON,M6L 1M8,CANADA,43.7100779,-79.4959081
826781,60 PLAYFAIR AVE,DANTE ALIGHIERI ACADEMY,,TORONTO,ON,M6B 2P9,CANADA,43.7104048,-79.4579144
826837,851 MOUNT PLEASANT ROAD,NORTHERN SECONDARY SCHOOL,,TORONTO,ON,M4P 2L5,CANADA,43.7104635,-79.3902855
826634,1 CITY VIEW DR,NEWTONS GROVE SCHOOL,,ETOBICOKE,ON,M9W 5A5,CANADA,43.7105047,-79.6260816
826815,200 HANNA RD.,LEASIDE HIGH SCHOOL,,TORONTO,ON,M4G 3N8,CANADA,43.7111943,-79.372426
826797,2999 DUFFERN ST,FIELDSTONE KINGS COLLEGE SCH,,TORONTO,ON,M6B 3T4,CANADA,43.711726,-79.453527
826857,21 ST CLEMENTS AVE,SAINT CLEMENTS SCHOOL,,TORONTO,ON,M4R 1G8,CANADA,43.7125862,-79.4003132
826874,SUITE 201,TORONTO ACAD ADVANCED LRNG,901 LAWRENCE AVENUE WEST,TORONTO,ON,M6A 1C3,CANADA,43.713191,-79.4568524
826359,3131 MORNING STAR DRIVE,MORNING STAR SECONDARY SCHOOL,,MISSISSAUGA,ON,L4T 1X3,CANADA,43.7140448,-79.6483007
826641,100 BRIMLEY RD S,CARDINAL NEWMAN CATHOLIC HS,,SCARBOROUGH,ON,M1M 3X4,CANADA,43.7147603,-79.2403912
826391,2660 YONGE ST,BLYTH ACADEMY LAWRENCE PARK,,TORONTO,ON,M4P 2J5,CANADA,43.716019,-79.400652
826050,510 BALMORAL DRIVE,BRAMALEA SECONDARY SCHOOL,,BRAMALEA,ON,L6T 1W4,CANADA,43.7164183,-79.7074275
820544,2949 BATHURST ST,BNOS BAIS YAAKOV HIGH SCHOOL,,NORTH YORK,ON,M6B 3B2,CANADA,43.7165687,-79.4287661
826650,40 FAIRFAX CRES,W A PORTER COLG INST-SATEC,,SCARBOROUGH,ON,M1L 1Z9,CANADA,43.7166108,-79.2873215
826055,296 CONESTOGA DRIVE,HEART LAKE SECONDARY SCHOOL,,BRAMPTON,ON,L6Z 3M1,CANADA,43.7166537,-79.7886125
826492,640 LAWRENCE AVE W,JOHN POLANYI COLLEGIATE INST,,TORONTO,ON,M6A 1B1,CANADA,43.7173659,-79.4397628
826451,155 FALLSTAFF AVENUE,NELSON A BOYLEN COLLEGIATE INS,,NORTH YORK,ON,M6L 2E5,CANADA,43.7174111,-79.4958031
826748,85 STORMONT AVE,TIFERES BAIS YAAKOV,,TORONTO,ON,M5N 2C3,CANADA,43.7183913,-79.4285505
826093,2 NOTRE DAME AVE,NOTRE DAME SECONDARY SCHOOL,,BRAMPTON,ON,L6Z 4L5,CANADA,43.7197398,-79.7802474
826804,1451 AVENUE RD.,HAVERGAL COLLEGE,,TORONTO,ON,M5N 2H9,CANADA,43.720253,-79.4134179
826247,10 NORTH PARK DR,NORTH PARK SECONDARY SCHOOL,,BRAMPTON,ON,L6S 3M1,CANADA,43.7204531,-79.748488
826754,410 LAWRENCE AVE W,BETH JACOB HIGH SCHOOL GIRLS,,TORONTO,ON,M5M 1C2,CANADA,43.7207249,-79.4236974
826588,2170 KIPLING AVE,MONSIGNOR PERCY JOHNSON HS,,TORONTO,ON,M9W 4K9,CANADA,43.7208113,-79.5719709
826646,3800 SAINT CLAIR AVENUE EAST,R H KING ACADEMY,,SCARBOROUGH,ON,M1M 1V3,CANADA,43.72191,-79.2380938
826814,125 CHATSWORTH DR.,LAWRENCE PARK COLLEGIATE INST,,TORONTO,ON,M4R 1S1,CANADA,43.7221392,-79.4103527
826428,7640 ANAKA DRIVE,ASCENSION OF OUR LORD SEC SCH,,MISSISSAUGA,ON,L4Z 2Y9,CANADA,43.7228746,-79.6535936
826639,95 JONESVILLE CRES,SCARBOROUGH CHRISTIAN SCHOOLS,,NORTH YORK,ON,M4A 1H2,CANADA,43.7237131,-79.3098837
826338,3545 MORNING STAR DR,LINCOLN ALEXANDER SECONDARY,,MISSISSAUGA,ON,L4T 1Y3,CANADA,43.7244561,-79.6402103
826204,35 HEAVITREE DR,SUON ACADEMY,,TORONTO,ON,M3L 1K5,CANADA,43.7260597,-79.5153376
826574,20 FORDWICH CRES,THISTLETOWN COLLEGIATE INST,,ETOBICOKE,ON,M9W 2T4,CANADA,43.7273854,-79.5622756
826928,20 STARVIEW LANE,SAINT BASIL THE GREAT COLL SCH,,NORTH YORK,ON,M9M 3B2,CANADA,43.7275548,-79.5335154
826303,155 MAITLAND AVENUE SOUTH,LISTOWEL DISTRICT SEC SCH,,LISTOWEL,ON,N4W 2M4,CANADA,43.7279774,-80.9464356
826872,318 LAWRENCE AVE. E.,TORONTO FRENCH SCHOOL,,TORONTO,ON,M4N 1T7,CANADA,43.7284921,-79.3834986
826136,20 DUBRAY AVENUE,MADONNA CATHOLIC SECONDARY SCH,,DOWNSVIEW,ON,M3K 1V5,CANADA,43.7295628,-79.477825
826709,3293 YONGE ST,NORTH TORONTO ACADEMY,,TORONTO,ON,M4N 2L8,CANADA,43.7300819,-79.4032986
826124,7 HAWKSDALE RD,DOWNSVIEW SECONDARY SCHOOL,,DOWNSVIEW,ON,M3K 1W3,CANADA,43.7307231,-79.4791025
821381,3600 BATHURST ST,BAIS CHOMESH HIGH SCHOOL,,TORONTO,ON,M6A 2C9,CANADA,43.7310903,-79.4331594
826572,1675 MARTIN GROVE ROAD,WEST HUMBER COLLEGIATE INST,,ETOBICOKE,ON,M9V 3S3,CANADA,43.7311039,-79.5870799
826956,2365 BAYVIEW AVE,CRESCENT SCHOOL,,TORONTO,ON,M2L 1A2,CANADA,43.732938,-79.379074
826374,115 GLENVALE BLVD,HOLY NAME MARY SECONDARY SCH,,BRAMPTON,ON,L6S 3J7,CANADA,43.7337791,-79.7164801
821263,18 CHAMPLAIN BLVD,PATHS OF TORAH SECONDARY SCH,,TORONTO,ON,M3H 2Z1,CANADA,43.733915,-79.4448088
826183,260 SOUTH ST.,GODERICH COLLEGIATE INSTITUTE,,GODERICH,ON,,CANADA,43.7339719,-81.7114892
826162,1760 MARTIN GROVE,MARIAN ACADEMY,,ETOBICOKE,ON,M9V 3S4,CANADA,43.7358679,-79.5920205
826119,15 THE DONWAY EAST,DON MILLS COLLEGIATE INSTITUTE,,TORONTO ONTARIO,ON,M3C 1X6,CANADA,43.7359656,-79.3393387
826575,1760 MARTIN GROVE RD,FATHER HENRY CARR CATHOLIC SEC,,ETOBICOKE,ON,M9V 3S4,CANADA,43.7360602,-79.5921817
826038,1370 WILLIAMS PKWY,CHINGUACOUSY SECONDARY SCHOOL,,BRAMPTON,ON,L6S 1V3,CANADA,43.7371724,-79.7284262
826661,959 MIDLAND AVENUE,JEAN VANIER CATHOLIC SEC SCH,,TORONTO,ON,M1K 4G4,CANADA,43.7378123,-79.2590857
826052,25 CORPORATION DRIVE,SAINT THOMAS AQUINAS SEC SCH,,BRAMPTON,ON,L6S 6A2,CANADA,43.738924,-79.710826
825987,415 GREAT LAKES DR,HAROLD M BRATHWAITE SEC SCHOOL,,BRAMPTON,ON,L6R 2Z4,CANADA,43.7392762,-79.7705254
826816,101 MASON BLVD,LORETTO ABBEY CATHOLIC SEC SCH,,TORONTO,ON,M5M 3E2,CANADA,43.7409696,-79.4105886
826901,12480 HUTCHINSON FARM LANE,BRAMPTON CHRISTIAN SCHOOL,,CALEDON,ON,L7C 2B6,CANADA,43.7422852,-79.8389551
826842,159 ALMORE AVE,BNEI AKIVA HIGH SCHOOL,,DOWNSVIEW,ON,M3H 2H9,CANADA,43.745287,-79.448569
826649,1176 PHARMACY AVENUE,WEXFORD COLLEGIATE INSTITUTE,,SCARBOROUGH,ON,M1R 2H7,CANADA,43.7460707,-79.3067674
826141,7-75 CARL HALL RD,BLYTH ACADEMY DOWNSVIEW PARK,,NORTH YORK,ON,M3K 2B9,CANADA,43.7463137,-79.4756074
826847,7-75 CARL HALL RD,PEAC SCHOOL FOR ELITE ATHLETES,,TORONTO,ON,M3K 2B9,CANADA,43.7463137,-79.4756074
826273,2580 KIPLING AVE,NORTH ALBION COLLEGIATE INST,,TORONTO,ON,M9V 3B2,CANADA,43.7469282,-79.5848745
826138,36 SCARSDALE RD,LA CITADELLE INTERNATIONAL,,NORTH YORK,ON,M3B 2R7,CANADA,43.7474744,-79.354505
826647,145 GUILDWOOD PARKWAY,SIR WILFRID LAURIER COLL INST,,SCARBOROUGH,ON,M1E 1P5,CANADA,43.7475868,-79.1971404
826651,2239 LAWRENCE AVE E,WINSTON CHURCHILL COLG INST,,SCARBOROUGH,ON,M1P 2P7,CANADA,43.7480968,-79.2781607
826924,3395 WESTON RD,EMERY COLLEGIATE INSTITUTE,,WESTON,ON,M9M 2V9,CANADA,43.7482149,-79.5389239
825986,80 SCARSDALE RD,GILES SCHOOL THE,,TORONTO,ON,M3B 2R7,CANADA,43.750268,-79.355558
826122,60 ROWENA DRIVE,SENATOR OCONNOR COLLEGE SCHOOL,,TORONTO,ON,M3A 3R2,CANADA,43.7506144,-79.317419
826438,101 SCARSDALE ROAD,HAWTHORN SCHOOL FOR GIRLS,,NORTH YORK,ON,M3B 2R2,CANADA,43.7513188,-79.3552403
826961,490 YORK MILLS ROAD,YORK MILLS COLLEGIATE INST,,NORTH YORK,ON,M3B 1W6,CANADA,43.7515087,-79.3736002
826953,300 BANBURY RD,ECOLE SECONDAIRE ETIENNE-BRULE,,NORTH YORK,ON,M2L 2V3,CANADA,43.7520889,-79.3716204
826687,10815 DIXIE RD,ST MARGUERITE D YOUVILLE SS,,BRAMPTON,ON,L6R 2W5,CANADA,43.7522331,-79.7766089
826121,755 OAKDALE ROAD,WESTVIEW CENTENNIAL SEC SCHOOL,,NORTH YORK,ON,M3N 1W7,CANADA,43.7524598,-79.5251246
826126,20 TILLPLAIN ROAD,WILLIAM L MACKENZIE COLL INST,,DOWNSVIEW,ON,M3H 5R2,CANADA,43.7536274,-79.4617748
826640,2740 LAWRENCE AVE E,DAVID AND MARY THOMSON COLGT,,SCARBOROUGH,ON,M1P 2S7,CANADA,43.755085,-79.2634985
826120,15 WALLINGFORD ROAD,VICTORIA PARK SECONDARY SCHOOL,,DON MILLS,ON,M3A 2V1,CANADA,43.7556958,-79.3215631
826764,4576 YONGE ST STE 408,DON VALLEY PREPARATORY ACADEMY,,TORONTO,ON,M2N 6N4,CANADA,43.7562684,-79.4099743
826638,550 MARKHAM ROAD,CEDARBRAE COLLEGIATE INSTITUTE,,SCARBOROUGH,ON,M1H 2A2,CANADA,43.7562815,-79.2258021
826766,1500 BIRCHMOUNT RD,BOND INTERNATIONAL COLLEGE,,TORONTO,ON,M1P 2G5,CANADA,43.7565862,-79.2891906
826123,340 SENTINEL ROAD,C W JEFFERYS COLLEGIATE INST,,NORTH YORK,ON,M3J 1T9,CANADA,43.75814,-79.500321
826945,171 AVONDALE AVENUE,AVONDALE ALTERNATIVE SCHOOL,,WILLOWDALE,ON,M2N 2V4,CANADA,43.7587897,-79.4027531
826771,217 BROOKBANKS DR.,CRESTWOOD PREPARATORY COLLEGE,,TORONTO,ON,M3A 2T7,CANADA,43.7590638,-79.3256683
826856,365 FATHER TOBIN RD,LOUISE ARBOUR SECONDARY SCHOOL,,BRAMPTON,ON,L6R 0R4,CANADA,43.7593116,-79.7675382
826184,150 LESMILL RD,BROOKLYN COLLEGE,,NORTH YORK,ON,M3B 2T5,CANADA,43.7594672,-79.3581419
826108,300-25 SHEPPARD AVE W,CROWN ACADEMIC INTRNTL SCHOOL,,NORTH YORK,ON,M2N 6S6,CANADA,43.7607818,-79.4122745
826959,UNIVERSITY COUNSELLOR,BAYVIEW GLEN SCHOOL,275 DUNCAN MILL RD,TORONTO,ON,M3B 3H9,CANADA,43.760985,-79.3510622
826118,1 DUNCAN MILL RD,METROPOLITAN PREP ACADEMY,,TORONTO,ON,M3B 1Z2,CANADA,43.7610544,-79.3567511
826882,44 APPIAN DR,PRESTIGE SCHOOL,,TORONTO,ON,M2J 2P9,CANADA,43.7611925,-79.4281956
826470,250 LESMILL RD,WEBTREE INTRNTL SCH EXCELLENCE,,NORTH YORK,ON,M3B 2T5,CANADA,43.7616923,-79.360516
826873,200 WILMINGTON AVE,TANENBAUM CHAT - WALLENBERG,,NORTH YORK,ON,M3H 5J8,CANADA,43.7619729,-79.4574217
826140,1440 FINCH AVENUE WEST,JAMES CARDINAL MCGUIGAN CATH H,,DOWNSVIEW,ON,M3J 3G3,CANADA,43.763351,-79.4936082
826125,200 GRAYDON HALL DRIVE,GEORGE S HENRY ACADEMY,,NORTH YORK,ON,M3A 3A6,CANADA,43.7637532,-79.3400289
826564,200 SHEPPARD AVE E,TORONTO CENTRAL ACADEMY,,NORTH YORK,ON,M2N 3A9,CANADA,43.7638238,-79.4038652
826947,36 GREENFIELD AVE,CARDINAL CARTER ACAD FOR ARTS,,TORONTO,ON,M2N 3C8,CANADA,43.7638723,-79.4096582
826619,2671 SANDALWOOD PKY E,SANDALWOOD HEIGHTS SECONDARY,,BRAMPTON,ON,L6R 0K7,CANADA,43.7658453,-79.7443069
826643,60 BRIMORTON DRIVE,ALTERNATIVE SCARBOROUGH EDUC 1,,SCARBOROUGH,ON,M1P 3Z1,CANADA,43.7667009,-79.2545784
826738,5075 YONGE ST STE 803,NORTHERN LIGHTS PREPARTRY COLG,,TORONTO,ON,M2N 6C6,CANADA,43.7678675,-79.4120987
826951,100 PRINCESS AVE.,EARL HAIG SECONDARY SCHOOL,,TORONTO,ON,M2N 3R7,CANADA,43.7694734,-79.406068
826987,7501 MARTIN GROVE RD,HOLY CROSS CATHOLIC ACADEMY,,WOODBRIDGE,ON,L4L 1A5,CANADA,43.769522,-79.6061326
825800,POST OFFICE BOX 10,SHELBURNE REGIONAL HIGH SCHOOL,,SHELBURNE,NS,B0T 1W0,CANADA,43.7714,-65.3018149
826981,531 FINCH AVE W,CRAWFORD ADVENTIST ACADEMY,,NORTH YORK,ON,M2R 3X2,CANADA,43.7717603,-79.4449226
826992,255 YORKLAND BLVD,NORTH TORONTO CHRISTIAN SCH,,WILLOWDALE,ON,M2J 1S3,CANADA,43.7735081,-79.3371128
826955,550 FINCH AVENUE WEST,NORTHVIEW HEIGHTS SEC SCH,,NORTH YORK,ON,M2R 1N6,CANADA,43.7737562,-79.446173
826259,5000 MAYFIELD RD,MAYFIELD SECONDARY SCHOOL,,CALEDON,ON,L7C 0Z5,CANADA,43.7741733,-79.7819145
826922,350 MORNINGSIDE AVE.,WEST HILL COLLEGIATE INSTITUTE,,SCARBOROUGH,ON,M1E 3G3,CANADA,43.7757537,-79.1903221
826832,3195 SHEPPARD AVE E,NEW ORIENTAL INTERNATIONAL CLG,,TORONTO,ON,M1T 3K1,CANADA,43.7774636,-79.312182
826652,2222 ELLESMERE RD,WOBURN COLLEGIATE INSTITUTE,,SCARBOROUGH,ON,M1G 3M3,CANADA,43.7780772,-79.2279919
826848,89 FINCH AVE W FL 2,ST GEORGE ACADEMY,,TORONTO,ON,M2N 2H6,CANADA,43.7781055,-79.4222348
826149,14 BOLAND DR,ERIN DISTRICT HIGH SCHOOL,,ERIN,ON,N0B 1T0,CANADA,43.7788464,-80.0678383
826915,5400 LAWRENCE AVE E,SIR OLIVER MOWAT COLLEGIATE,,SCARBOROUGH,ON,M1C 2C6,CANADA,43.7793926,-79.1420622
826984,71 BRUCE ST,WOODBRIDGE COLLEGE,,WOODBRIDGE,ON,L4L 1J3,CANADA,43.7799382,-79.5823801
826983,377 WOODBRIDGE AVE,TORONTO DIST CHRSTN HIGH SCH,,WOODBRIDGE,ON,L4L 2V7,CANADA,43.7830252,-79.599929
826952,3000 DON MILLS RD,GEORGES VANIER SECONDARY SCH,,TORONTO,ON,M2J 3B6,CANADA,43.78324,-79.351115
826195,505-2347 KENNEDY RD,CANADA INTERNATIONAL COLLEGE,,SCARBOROUGH,ON,M1T 3T8,CANADA,43.783936,-79.2885094
826047,217-1457 MCCOWAN RD,FRANKLIN COLLEGE SCHOOL,,TORONTO,ON,M1S 5K7,CANADA,43.7851419,-79.2555376
826004,2450 BIRCHMOUNT ROAD,STEPHEN LEACOCK COLLEGIATE INS,,TORONTO,ON,M1T 2M5,CANADA,43.7860664,-79.3008426
826557,MGR-DE-CHARBENNEL,ECOLE SECONDAIRE CATHOLIQUE,110 AVENUE DREWRY,TORONTO,ON,M2M 1C8,CANADA,43.7868246,-79.4232625
826960,110 DREWRY AVENUE,MONSEIGNEUR-DE-CHARBONNEL SCH,,WILLOWDALE,ON,M2M 1C8,CANADA,43.7868246,-79.4232625
826566,24 DREWRY AVE,UNIONVILLE ACADEMY,,NORTH YORK,ON,M2M 1C8,CANADA,43.7870189,-79.4185845
826812,180 WINGES RD # 17-19,XYNA INTRNTNL SCH - WOODBRIDGE,,WOODBRIDGE,ON,L4L 6C6,CANADA,43.7872088,-79.5475828
826648,2300 PHARMACY AVENUE,SIR JOHN A MACDONALD COL INST,,TORONTO,ON,M1W 1H8,CANADA,43.7873579,-79.3233244
826002,2621 MIDLAND AVE,AGINCOURT COLLEGIATE INSTITUTE,,AGINCOURT,ON,M1S 1R6,CANADA,43.7888758,-79.2792884
826656,685 MILITARY TRAIL,POPE JOHN PAUL II SEC SCH,,SCARBOROUGH,ON,M1E 4P6,CANADA,43.7897026,-79.1995008
826695,500-5075 YONGE ST,UMC HIGH SCHOOL,,TORONTO,ON,M2N 7H3,CANADA,43.7905605,-79.403683
826954,155 HILDA AVE.,NEWTONBROOK SECONDARY SCHOOL,,TORONTO,ON,M2M 1V6,CANADA,43.7934384,-79.4269224
826735,1401 CLARK AVE W,VAUGHAN SECONDARY SCHOOL,,THORNHILL,ON,L4J 7R4,CANADA,43.7973866,-79.4685906
826957,3379 BAYVIEW AVENUE,SAINT JOSEPHS MORROW PARK,,WILLOWDALE,ON,M2M 3S4,CANADA,43.7980177,-79.3932874
826985,250 ANSLEY GROVE RD,FATHER BRESSANI CATHOLIC HS,,WOODBRIDGE,ON,L4L 3W4,CANADA,43.7986217,-79.5639431
826949,211 STEELES AVENUE EAST,BREBEUF COLLEGE SCHOOL,,WILLOWDALE,ON,M2M 3Y6,CANADA,43.7999622,-79.4018084
825994,109 CHARTLAND BOULEVARD,ASE 2,,AGINCOURT,ON,M1S 2R7,CANADA,43.8000868,-79.2781481
826861,3840 FINCH AVE E,YORKLAND HIGH SCHOOL,,SCARBOROUGH,ON,M1T 3T4,CANADA,43.8006815,-79.3015368
826043,2501 BRIDLETOWNE CIR,L AMOREAUX COLLEGIATE INST,,SCARBOROUGH,ON,M1W 2K1,CANADA,43.8020266,-79.3179801
826722,525 NEW WESTMINISTER DR,ST ELIZABETH CATHOLIC HS,,THORNHILL,ON,L4J 7X3,CANADA,43.8035934,-79.4557239
826542,1039 MCNICOLL AVE UNIT 200,INSIGHT ACADEMY OF CANADA,,SCARBOROUGH,ON,M1W 3W6,CANADA,43.803801,-79.3341677
826424,1051 MCNICOLL AVE,MCCANNY SECONDARY SCHOOL,,SCARBOROUGH,ON,M1W 3W6,CANADA,43.803816,-79.3333166
826037,150 TAPSCOTT RD,LESTER PEARSON COLLEGIATE INST,,SCARBOROUGH,ON,M1B 2L2,CANADA,43.8041614,-79.225092
826950,50 FRANCINE DRIVE,A Y JACKSON SECONDARY SCHOOL,,TORONTO,ON,M2H 2G6,CANADA,43.8050062,-79.3662771
826562,500-3550 VICTORIA PARK AVE,TORONTO INTERNATIONAL COLLEGE,,TORONTO,ON,M2H 2N5,CANADA,43.8054715,-79.3374319
826512,3080 BAYVIEW AVE,ROYAL CROWN ACADEMIC SCHOOL,,TORONTO,ON,M2N 5L3,CANADA,43.8065473,-79.2762212
826645,4640 FINCH AVE E,FRANCIS LIBERMANN CATHOLIC HS,,SCARBOROUGH,ON,M1S 4G2,CANADA,43.8068198,-79.274228
826065,200-3761 VICTORIA PARK AVE,WILLIAM SCHOOL,,SCARBOROUGH,ON,M1W 3S2,CANADA,43.8078941,-79.3374955
826635,1550 SANDHURST CIR,ALBERT CAMPBELL COLLEGTE INST,,SCARBOROUGH,ON,M1V 1S6,CANADA,43.8091235,-79.2716206
826686,1001 SANDHURST CIRCLE,ONTARIO INTERNATIONAL INSTITUT,STE 203,SCARBOROUGH,ON,M1V 1Z6,CANADA,43.8092109,-79.263657
826728,167 DUDLEY AVENUE,THORNHILL SECONDARY SCHOOL,,THORNHILL,ON,L3T 2E5,CANADA,43.8099248,-79.4197023
826497,36 ATKINSON AVE,GLOBAL EDUCATION ACADEMY,,THORNHILL,ON,L4J 8C9,CANADA,43.8099393,-79.444048
826654,40 SEWELLS RD,MOTHER TERESA CATHOLIC SS,,SCARBOROUGH,ON,M1B 3G5,CANADA,43.8100282,-79.2143028
826642,200 FUNDY BAY BLVD,DR NORMAN BETHUNE COLL INST,,SCARBOROUGH,ON,M1W 3G1,CANADA,43.8124181,-79.31972
826655,3200 KENNEDY RD,MARY WARD CATHOLIC SEC SCH,,SCARBOROUGH,ON,M1V 3S8,CANADA,43.8127362,-79.305052
